{
  "version": 0.6,
  "generator": "Overpass API 0.7.62.4 2390de5a",
  "osm3s": {
    "timestamp_osm_base": "2024-12-15T03:51:59Z",
    "timestamp_areas_base": "2024-12-15T03:51:59Z",
    "copyright": "The data included in this document is from www.openstreetmap.org. The data is made available under ODbL."
  },
  "elements": [
    {
      "type": "node",
      "id": 245654643,
      "lat": 18.9447467,
      "lon": 72.834718,
      "tags": {
        "name": "Imperial Palace",
        "tourism": "hotel"
      }
    },
    {
      "type": "node",
      "id": 245654709,
      "lat": 18.9461969,
      "lon": 72.8274147,
      "tags": {
        "name": "Sharada",
        "source": "AND",
        "tourism": "hotel"
      }
    },
    {
      "type": "node",
      "id": 245654841,
      "lat": 18.9474758,
      "lon": 72.8355281,
      "tags": {
        "source": "AND",
        "tourism": "hotel"
      }
    },
    {
      "type": "node",
      "id": 245655916,
      "lat": 18.958401,
      "lon": 72.811296,
      "tags": {
        "name": "Cecil",
        "source": "AND",
        "tourism": "hotel"
      }
    },
    {
      "type": "node",
      "id": 245659178,
      "lat": 18.9978253,
      "lon": 72.818454,
      "tags": {
        "name": "Sunbeam Geeta",
        "source": "AND",
        "tourism": "hotel"
      }
    },
    {
      "type": "node",
      "id": 245659835,
      "lat": 19.0059,
      "lon": 72.8186,
      "tags": {
        "name": "Vivako",
        "source": "AND",
        "tourism": "hotel"
      }
    },
    {
      "type": "node",
      "id": 245664375,
      "lat": 19.0491708,
      "lon": 72.9051478,
      "tags": {
        "name": "Jollyland",
        "source": "AND",
        "tourism": "hotel"
      }
    },
    {
      "type": "node",
      "id": 245664752,
      "lat": 19.0517387,
      "lon": 72.9103117,
      "tags": {
        "name": "Ghatla",
        "source": "AND",
        "tourism": "hotel"
      }
    },
    {
      "type": "node",
      "id": 245666128,
      "lat": 19.0616667,
      "lon": 72.8997266,
      "tags": {
        "name": "Jewel of Chembur",
        "source": "AND",
        "tourism": "hotel"
      }
    },
    {
      "type": "node",
      "id": 245666538,
      "lat": 19.0636369,
      "lon": 72.8940601,
      "tags": {
        "name": "Maruthi Mahal",
        "source": "AND",
        "tourism": "hotel"
      }
    },
    {
      "type": "node",
      "id": 245666563,
      "lat": 19.0693839,
      "lon": 72.8836606,
      "tags": {
        "name": "Anita Mahal",
        "source": "AND",
        "tourism": "hotel"
      }
    },
    {
      "type": "node",
      "id": 245668354,
      "lat": 19.0790449,
      "lon": 72.8462916,
      "tags": {
        "name": "Regency",
        "source": "AND",
        "tourism": "hotel"
      }
    },
    {
      "type": "node",
      "id": 245668712,
      "lat": 19.0835527,
      "lon": 72.8384747,
      "tags": {
        "amenity": "school",
        "name": "Classic",
        "opening_hours": "Mo-Su 09:00-21:00",
        "source": "AND",
        "tourism": "hotel"
      }
    },
    {
      "type": "node",
      "id": 245669161,
      "lat": 19.0870126,
      "lon": 72.8274729,
      "tags": {
        "name": "Atlantic",
        "opening_hours": "24/7",
        "source": "AND",
        "stars": "3",
        "tourism": "hotel"
      }
    },
    {
      "type": "node",
      "id": 245669308,
      "lat": 19.0886,
      "lon": 72.8275,
      "tags": {
        "name": "Ajanta",
        "source": "AND",
        "tourism": "hotel"
      }
    },
    {
      "type": "node",
      "id": 245669365,
      "lat": 19.0894,
      "lon": 72.8276,
      "tags": {
        "name": "Royal Garden",
        "source": "AND",
        "tourism": "hotel"
      }
    },
    {
      "type": "node",
      "id": 245670368,
      "lat": 19.103681,
      "lon": 72.8754749,
      "tags": {
        "name": "Ambassador",
        "source": "AND",
        "tourism": "hotel"
      }
    },
    {
      "type": "node",
      "id": 245671372,
      "lat": 19.1065748,
      "lon": 72.8761199,
      "tags": {
        "name": "Leela Kempinski",
        "source": "AND",
        "tourism": "hotel"
      }
    },
    {
      "type": "node",
      "id": 245671375,
      "lat": 19.1065999,
      "lon": 72.8769001,
      "tags": {
        "AND_a_nosr_p": "10004694",
        "name": "Kumaria Presidency",
        "source": "AND",
        "tourism": "hotel"
      }
    },
    {
      "type": "node",
      "id": 245671517,
      "lat": 19.1097262,
      "lon": 72.8594577,
      "tags": {
        "name": "Samraj",
        "source": "AND",
        "tourism": "hotel"
      }
    },
    {
      "type": "node",
      "id": 245671547,
      "lat": 19.1111949,
      "lon": 72.8719322,
      "tags": {
        "AND_a_nosr_p": "10004700",
        "name": "Sun n Sheel",
        "source": "AND",
        "tourism": "hotel"
      }
    },
    {
      "type": "node",
      "id": 245672210,
      "lat": 19.1136052,
      "lon": 72.8804798,
      "tags": {
        "AND_a_nosr_p": "10004699",
        "name": "Tirupati",
        "source": "AND",
        "tourism": "hotel"
      }
    },
    {
      "type": "node",
      "id": 245672458,
      "lat": 19.1182153,
      "lon": 72.8506224,
      "tags": {
        "name": "Imperial Palace",
        "source": "AND",
        "tourism": "hotel"
      }
    },
    {
      "type": "node",
      "id": 245672493,
      "lat": 19.1175319,
      "lon": 72.8508646,
      "tags": {
        "name": "Highway Inn",
        "source": "AND",
        "tourism": "hotel"
      }
    },
    {
      "type": "node",
      "id": 245672530,
      "lat": 19.1154,
      "lon": 72.872,
      "tags": {
        "name": "Tunga International",
        "source": "AND",
        "tourism": "hotel"
      }
    },
    {
      "type": "node",
      "id": 245673845,
      "lat": 19.1217301,
      "lon": 72.8318524,
      "tags": {
        "name": "Babul",
        "tourism": "hotel"
      }
    },
    {
      "type": "node",
      "id": 245675841,
      "lat": 19.1437101,
      "lon": 72.7893756,
      "tags": {
        "AND_a_nosr_p": "10004262",
        "name": "Dolphin View",
        "source": "AND",
        "tourism": "hotel"
      }
    },
    {
      "type": "node",
      "id": 245676011,
      "lat": 19.1458595,
      "lon": 72.7895646,
      "tags": {
        "AND_a_nosr_p": "10004263",
        "name": "Manisha Cottage",
        "source": "AND",
        "tourism": "hotel"
      }
    },
    {
      "type": "node",
      "id": 245677487,
      "lat": 19.1622,
      "lon": 72.785,
      "tags": {
        "AND_a_nosr_p": "10004271",
        "name": "Blue Ballerina",
        "source": "AND",
        "tourism": "hotel"
      }
    },
    {
      "type": "node",
      "id": 245677504,
      "lat": 19.1623,
      "lon": 72.8513,
      "tags": {
        "name": "Jay Prakash",
        "source": "AND",
        "tourism": "hotel"
      }
    },
    {
      "type": "node",
      "id": 245678667,
      "lat": 19.1743671,
      "lon": 72.7963333,
      "tags": {
        "AND_a_nosr_p": "10004272",
        "name": "The Resort",
        "source": "AND",
        "tourism": "hotel"
      }
    },
    {
      "type": "node",
      "id": 245678767,
      "lat": 19.1760671,
      "lon": 72.7966333,
      "tags": {
        "AND_a_nosr_p": "10004274",
        "name": "Anil Thakur Guest House",
        "source": "AND",
        "tourism": "hotel"
      }
    },
    {
      "type": "node",
      "id": 245681528,
      "lat": 19.2221778,
      "lon": 72.8522858,
      "tags": {
        "name": "Rohan",
        "source": "AND",
        "tourism": "hotel"
      }
    },
    {
      "type": "node",
      "id": 279962108,
      "lat": 19.0959916,
      "lon": 72.8269037,
      "tags": {
        "created_by": "JOSM",
        "name": "seaview",
        "tourism": "hotel"
      }
    },
    {
      "type": "node",
      "id": 296357707,
      "lat": 19.095697,
      "lon": 72.8269623,
      "tags": {
        "check_date": "2024-09-24",
        "name": "Citizen Hotel",
        "tourism": "hotel"
      }
    },
    {
      "type": "node",
      "id": 485966125,
      "lat": 18.9440303,
      "lon": 72.829059,
      "tags": {
        "name": "Great Punjab Hotel",
        "tourism": "hotel"
      }
    },
    {
      "type": "node",
      "id": 665036885,
      "lat": 18.9487539,
      "lon": 72.8293568,
      "tags": {
        "name": "Hotel Adarsh Palace",
        "tourism": "hotel"
      }
    },
    {
      "type": "node",
      "id": 668478113,
      "lat": 19.1350214,
      "lon": 72.9096978,
      "tags": {
        "name": "Hostel No. 5",
        "tourism": "hostel"
      }
    },
    {
      "type": "node",
      "id": 668478124,
      "lat": 19.1362829,
      "lon": 72.9103031,
      "tags": {
        "name": "Hostel No. 4",
        "tourism": "hostel"
      }
    },
    {
      "type": "node",
      "id": 668478125,
      "lat": 19.1364536,
      "lon": 72.9125695,
      "tags": {
        "name": "Hostel No. 2",
        "tourism": "hostel"
      }
    },
    {
      "type": "node",
      "id": 668478126,
      "lat": 19.1362317,
      "lon": 72.9114868,
      "tags": {
        "name": "Hostel No. 3",
        "tourism": "hostel"
      }
    },
    {
      "type": "node",
      "id": 668478127,
      "lat": 19.1362571,
      "lon": 72.9139938,
      "tags": {
        "name": "Hostel No. 1",
        "tourism": "hostel"
      }
    },
    {
      "type": "node",
      "id": 668504454,
      "lat": 19.1290631,
      "lon": 72.9157813,
      "tags": {
        "name": "Hostel No. 10",
        "tourism": "hostel"
      }
    },
    {
      "type": "node",
      "id": 668506109,
      "lat": 19.1329296,
      "lon": 72.9118107,
      "tags": {
        "name": "Hostel No. 11",
        "tourism": "hostel"
      }
    },
    {
      "type": "node",
      "id": 668506112,
      "lat": 19.1335359,
      "lon": 72.9108558,
      "tags": {
        "name": "Hostel No. 8",
        "toilets:wheelchair": "no",
        "tourism": "hostel",
        "wheelchair": "limited"
      }
    },
    {
      "type": "node",
      "id": 700886292,
      "lat": 18.99282,
      "lon": 72.8486524,
      "tags": {
        "amenity": "parking",
        "name": "Diamond",
        "source": "AND",
        "tourism": "hotel"
      }
    },
    {
      "type": "node",
      "id": 858643701,
      "lat": 18.9546342,
      "lon": 72.8354513,
      "tags": {
        "name": "Hotel Mogul Palace",
        "tourism": "hotel"
      }
    },
    {
      "type": "node",
      "id": 907757781,
      "lat": 19.0084975,
      "lon": 72.8405638,
      "tags": {
        "name": "Hotel Shantidoot",
        "tourism": "hotel"
      }
    },
    {
      "type": "node",
      "id": 961369363,
      "lat": 18.9224055,
      "lon": 72.8326985,
      "tags": {
        "addr:city": "Puducherry",
        "addr:country": "IN",
        "addr:housename": "Florence House",
        "addr:housenumber": "12",
        "addr:place": "Colaba",
        "addr:postcode": "400039",
        "addr:street": "Boman Behram Road (Mere Weather Road)",
        "contact:email": "carltontravels@gmail.com",
        "name": "Carlton Hotel",
        "phone": "22020642",
        "phone2": "22020259",
        "tourism": "hotel"
      }
    },
    {
      "type": "node",
      "id": 969781592,
      "lat": 19.1083564,
      "lon": 72.8587789,
      "tags": {
        "name": "Ratna Mahal",
        "source": "AND",
        "tourism": "hotel"
      }
    },
    {
      "type": "node",
      "id": 1056702163,
      "lat": 18.9278369,
      "lon": 72.8326261,
      "tags": {
        "internet_access": "no",
        "name": "Hotel Lawrence",
        "smoking": "no",
        "tourism": "guest_house"
      }
    },
    {
      "type": "node",
      "id": 1151728614,
      "lat": 18.9252691,
      "lon": 72.8310128,
      "tags": {
        "name": "YWCA International Centre",
        "tourism": "hostel"
      }
    },
    {
      "type": "node",
      "id": 1234802637,
      "lat": 18.938201,
      "lon": 72.8354677,
      "tags": {
        "name": "City Palace",
        "source": "AND",
        "tourism": "hotel"
      }
    },
    {
      "type": "node",
      "id": 1286194734,
      "lat": 18.9349748,
      "lon": 72.8332409,
      "tags": {
        "name": "Residency",
        "tourism": "hotel"
      }
    },
    {
      "type": "node",
      "id": 1360144571,
      "lat": 19.1633302,
      "lon": 72.8509569,
      "tags": {
        "name": "Sai Leela Hotel",
        "tourism": "hotel"
      }
    },
    {
      "type": "node",
      "id": 1367092463,
      "lat": 19.0539661,
      "lon": 72.9111921,
      "tags": {
        "name": "Pratistha",
        "source": "AND",
        "tourism": "hotel"
      }
    },
    {
      "type": "node",
      "id": 1375251414,
      "lat": 19.0963374,
      "lon": 72.8545012,
      "tags": {
        "name": "Kamat Plaza",
        "source": "AND",
        "tourism": "hotel"
      }
    },
    {
      "type": "node",
      "id": 1392005677,
      "lat": 19.0843315,
      "lon": 72.8441532,
      "tags": {
        "name": "Airlines International",
        "source": "AND",
        "tourism": "hotel"
      }
    },
    {
      "type": "node",
      "id": 1392005678,
      "lat": 19.079788,
      "lon": 72.8385825,
      "tags": {
        "name": "Apsara International",
        "source": "AND",
        "tourism": "hotel"
      }
    },
    {
      "type": "node",
      "id": 1392005681,
      "lat": 19.0835291,
      "lon": 72.8442623,
      "tags": {
        "name": "Galaxy",
        "source": "AND",
        "tourism": "hotel"
      }
    },
    {
      "type": "node",
      "id": 1392005685,
      "lat": 19.0810431,
      "lon": 72.838974,
      "tags": {
        "name": "Prince Palace",
        "source": "AND",
        "tourism": "hotel"
      }
    },
    {
      "type": "node",
      "id": 1392005687,
      "lat": 19.0805429,
      "lon": 72.840324,
      "tags": {
        "name": "Welco",
        "source": "AND",
        "tourism": "hotel"
      }
    },
    {
      "type": "node",
      "id": 1504771680,
      "lat": 18.9326798,
      "lon": 72.8237555,
      "tags": {
        "name": "Sea Green Hotel",
        "tourism": "hotel"
      }
    },
    {
      "type": "node",
      "id": 1541857829,
      "lat": 18.9350805,
      "lon": 72.8241417,
      "tags": {
        "addr:city": "Mumbai",
        "addr:housenumber": "135",
        "addr:postcode": "400020",
        "addr:street": "Marine Drive",
        "brand": "InterContinental",
        "brand:wikidata": "Q1825730",
        "brand:wikipedia": "en:InterContinental",
        "name": "InterContinental Hotel",
        "phone": "+91 22 6639 9999",
        "tourism": "hotel",
        "website": "https://www.ihg.com/intercontinental/hotels/gb/en/mumbai/bomhb/hoteldetail"
      }
    },
    {
      "type": "node",
      "id": 1549970484,
      "lat": 19.0425272,
      "lon": 72.9272843,
      "tags": {
        "name": "HBCSE Hostel",
        "tourism": "hostel"
      }
    },
    {
      "type": "node",
      "id": 1608381628,
      "lat": 19.1297012,
      "lon": 72.9147401,
      "tags": {
        "name": "Guest House",
        "tourism": "guest_house"
      }
    },
    {
      "type": "node",
      "id": 1640686125,
      "lat": 19.1631419,
      "lon": 72.7901798,
      "tags": {
        "AND_a_nosr_p": "10004269",
        "name": "Basant",
        "source": "AND",
        "tourism": "hotel"
      }
    },
    {
      "type": "node",
      "id": 1640686126,
      "lat": 19.160137,
      "lon": 72.7851986,
      "tags": {
        "AND_a_nosr_p": "10004273",
        "name": "Bhatia Island",
        "source": "AND",
        "tourism": "hotel"
      }
    },
    {
      "type": "node",
      "id": 1640686131,
      "lat": 19.1636802,
      "lon": 72.7904156,
      "tags": {
        "AND_a_nosr_p": "10004270",
        "name": "Ruskon",
        "source": "AND",
        "tourism": "hotel"
      }
    },
    {
      "type": "node",
      "id": 1640686132,
      "lat": 19.1443977,
      "lon": 72.7896652,
      "tags": {
        "AND_a_nosr_p": "10004261",
        "name": "Vyas Wadi",
        "source": "AND",
        "tourism": "hotel"
      }
    },
    {
      "type": "node",
      "id": 1643105789,
      "lat": 18.9350404,
      "lon": 72.833542,
      "tags": {
        "name": "Benazeer",
        "source": "AND",
        "tourism": "hotel"
      }
    },
    {
      "type": "node",
      "id": 1643105794,
      "lat": 18.9352854,
      "lon": 72.8330618,
      "tags": {
        "name": "Residency",
        "source": "AND",
        "tourism": "hotel"
      }
    },
    {
      "type": "node",
      "id": 1646774067,
      "lat": 19.1204453,
      "lon": 72.844871,
      "tags": {
        "name": "Mid Town",
        "source": "AND",
        "tourism": "hotel"
      }
    },
    {
      "type": "node",
      "id": 1650382549,
      "lat": 19.0101,
      "lon": 72.8179021,
      "tags": {
        "name": "Hilltop",
        "source": "AND",
        "tourism": "hotel"
      }
    },
    {
      "type": "node",
      "id": 1651404912,
      "lat": 19.0597045,
      "lon": 72.8976517,
      "tags": {
        "name": "Malhar",
        "source": "AND",
        "tourism": "hotel"
      }
    },
    {
      "type": "node",
      "id": 1660405947,
      "lat": 19.2439468,
      "lon": 72.8648572,
      "tags": {
        "name": "Gokulanand Hotel",
        "tourism": "hotel"
      }
    },
    {
      "type": "node",
      "id": 1803677376,
      "lat": 19.113053,
      "lon": 72.8256428,
      "tags": {
        "name": "Anand Bhavan",
        "tourism": "guest_house"
      }
    },
    {
      "type": "node",
      "id": 1867631840,
      "lat": 19.1346222,
      "lon": 72.8987555,
      "tags": {
        "name": "Residence Inn Powai",
        "source": "GPS",
        "tourism": "hotel"
      }
    },
    {
      "type": "node",
      "id": 2148678028,
      "lat": 19.1723617,
      "lon": 72.8605305,
      "tags": {
        "name": "The Westin Mumbai Garden City",
        "tourism": "hotel"
      }
    },
    {
      "type": "node",
      "id": 2177958513,
      "lat": 18.9548493,
      "lon": 72.8346213,
      "tags": {
        "name": "Al Haram",
        "source": "AND",
        "tourism": "hotel"
      }
    },
    {
      "type": "node",
      "id": 2177958514,
      "lat": 18.9552772,
      "lon": 72.8370461,
      "tags": {
        "name": "Al Mazin",
        "source": "AND",
        "tourism": "hotel"
      }
    },
    {
      "type": "node",
      "id": 2290729188,
      "lat": 19.0440479,
      "lon": 72.8662694,
      "tags": {
        "name": "Shangrila",
        "source": "AND",
        "tourism": "hotel"
      }
    },
    {
      "type": "node",
      "id": 2313139917,
      "lat": 19.1359551,
      "lon": 72.8990184,
      "tags": {
        "name": "Ramada Powai Hotel & Convention Center",
        "operator": "Ramada",
        "tourism": "hotel",
        "website": "https://ramadapowai.com/"
      }
    },
    {
      "type": "node",
      "id": 2427561911,
      "lat": 19.1165482,
      "lon": 72.8365687,
      "tags": {
        "tourism": "motel"
      }
    },
    {
      "type": "node",
      "id": 2601474291,
      "lat": 19.1109356,
      "lon": 72.8630387,
      "tags": {
        "name": "Dragonfly",
        "tourism": "hotel"
      }
    },
    {
      "type": "node",
      "id": 2730461094,
      "lat": 18.9720126,
      "lon": 72.8233555,
      "tags": {
        "addr:city": "Mumbai",
        "addr:housenumber": "18",
        "addr:street": "YMCA Road (Club Back Road)",
        "name": "YMCA International House",
        "operator": "YMCA",
        "phone": "+91 22 61540100",
        "tourism": "hotel",
        "website": "http://ymcabombay.com/branch/ymca-international-house/"
      }
    },
    {
      "type": "node",
      "id": 3110094391,
      "lat": 19.1177459,
      "lon": 72.8800918,
      "tags": {
        "cuisine": "bread amlet",
        "name": "Hotel Grand Inn",
        "note": "stay here",
        "phone": "022292537764776",
        "tourism": "hotel",
        "website": "www.hotelgrandinn.co.in",
        "wifi": "free"
      }
    },
    {
      "type": "node",
      "id": 3125252473,
      "lat": 19.0397857,
      "lon": 72.9479365,
      "tags": {
        "addr:city": "Mumbai",
        "addr:postcode": "400088",
        "addr:street": "M G Ramchandran Marg",
        "name": "Janata Hotel",
        "tourism": "hotel"
      }
    },
    {
      "type": "node",
      "id": 3177487243,
      "lat": 18.9468936,
      "lon": 72.8401784,
      "tags": {
        "addr:housenumber": "167",
        "addr:street": "P.D'Mello Road",
        "tourism": "hotel",
        "website": "https://hotelsealord.com/"
      }
    },
    {
      "type": "node",
      "id": 3206040351,
      "lat": 19.0624996,
      "lon": 72.9288123,
      "tags": {
        "name": "new delhi",
        "tourism": "hotel"
      }
    },
    {
      "type": "node",
      "id": 3216971090,
      "lat": 18.9367764,
      "lon": 72.8347815,
      "tags": {
        "name": "Sun Star Residency",
        "tourism": "hotel"
      }
    },
    {
      "type": "node",
      "id": 3229419686,
      "lat": 18.9394214,
      "lon": 72.8384104,
      "tags": {
        "name": "Hotel Manama",
        "tourism": "hotel"
      }
    },
    {
      "type": "node",
      "id": 3257869203,
      "lat": 19.0702445,
      "lon": 72.8398298,
      "tags": {
        "name": "hotel Shamlat",
        "tourism": "hotel"
      }
    },
    {
      "type": "node",
      "id": 3286301962,
      "lat": 18.9550484,
      "lon": 72.8363847,
      "tags": {
        "addr:housenumber": "17/19",
        "addr:street": "Mohammed Ali Road",
        "name": "Al-Moazin",
        "phone": "23478310/23475922",
        "tourism": "hotel"
      }
    },
    {
      "type": "node",
      "id": 3289549971,
      "lat": 19.0776977,
      "lon": 72.8790334,
      "tags": {
        "internet_access": "wlan",
        "name": "Hotel Kamaran residency",
        "opening_hours": "24/7",
        "tourism": "hotel"
      }
    },
    {
      "type": "node",
      "id": 3306535078,
      "lat": 18.9218143,
      "lon": 72.8317249,
      "tags": {
        "name": "Hotel Moti",
        "tourism": "hotel"
      }
    },
    {
      "type": "node",
      "id": 3306535081,
      "lat": 18.9181862,
      "lon": 72.8315678,
      "tags": {
        "addr:city": "Mumbai",
        "addr:country": "IN",
        "addr:housename": "1/39 Kamal Mansion, 3rd floor",
        "addr:postcode": "400005",
        "addr:street": "Arthur Bunder Road",
        "internet_access": "yes",
        "internet_access:fee": "no",
        "name": "India Guesthouse",
        "phone": "22833769",
        "tourism": "guest_house",
        "wheelchair": "no"
      }
    },
    {
      "type": "node",
      "id": 3306535082,
      "lat": 18.9198974,
      "lon": 72.8312034,
      "tags": {
        "name": "Kishan-Aga Begs P.G.H.",
        "tourism": "guest_house"
      }
    },
    {
      "type": "node",
      "id": 3306535109,
      "lat": 18.9182046,
      "lon": 72.8315697,
      "tags": {
        "addr:city": "Mumbai",
        "addr:country": "IN",
        "addr:housename": "1/39 Kamal Mansion, 4th floor",
        "addr:postcode": "400005",
        "addr:street": "Arthur Bunder Road",
        "internet_access": "yes",
        "internet_access:fee": "no",
        "name": "Sea Shore Guesthouse",
        "tourism": "guest_house",
        "wheelchair": "no"
      }
    },
    {
      "type": "node",
      "id": 3518703303,
      "lat": 19.1030238,
      "lon": 72.8872771,
      "tags": {
        "addr:city": "Mumbai",
        "addr:postcode": "400076",
        "addr:street": "Baji Pasalkar Marg (Saki Vihar Road)",
        "name": "Holiday Inn International Hotel",
        "tourism": "hotel"
      }
    },
    {
      "type": "node",
      "id": 3529545078,
      "lat": 19.0460553,
      "lon": 72.9098383,
      "tags": {
        "addr:postcode": "400088",
        "addr:street": "Sion Trombay Road",
        "amenity": "restaurant",
        "check_date:opening_hours": "2023-06-15",
        "diet:vegetarian": "only",
        "name": "Shubalaxmi",
        "opening_hours": "Mo-Su,PH 09:00-23:00",
        "tourism": "hotel"
      }
    },
    {
      "type": "node",
      "id": 3530903071,
      "lat": 19.0573437,
      "lon": 72.887152,
      "tags": {
        "name": "triveni bar",
        "tourism": "hotel"
      }
    },
    {
      "type": "node",
      "id": 3534581278,
      "lat": 19.053754,
      "lon": 72.8953351,
      "tags": {
        "name": "maharana hotel",
        "tourism": "hotel"
      }
    },
    {
      "type": "node",
      "id": 3846789769,
      "lat": 19.1057985,
      "lon": 72.8771149,
      "tags": {
        "addr:city": "Mumbai",
        "addr:postcode": "400 059",
        "addr:street": "International Airport Sahar",
        "name": "Waterstones Hotel",
        "phone": "+91 22 40906633",
        "smoking": "isolated",
        "tourism": "hotel",
        "website": "https://www.waterstoneshotel.com/"
      }
    },
    {
      "type": "node",
      "id": 3933987999,
      "lat": 19.1364141,
      "lon": 72.8279989,
      "tags": {
        "name": "Svenska Design Hotel",
        "tourism": "hotel"
      }
    },
    {
      "type": "node",
      "id": 3978019387,
      "lat": 18.9648362,
      "lon": 72.8188506,
      "tags": {
        "addr:city": "Mumbai",
        "addr:housenumber": "165",
        "addr:postcode": "400007",
        "addr:street": "Lamington Street",
        "name": "Hotel Kumkum",
        "phone": "+912223072010",
        "tourism": "hotel",
        "website": "hotelkumkum.com"
      }
    },
    {
      "type": "node",
      "id": 3978876100,
      "lat": 18.957259,
      "lon": 72.8102978,
      "tags": {
        "addr:city": "Mumbai",
        "addr:postcode": "400007",
        "name": "Hotel Sapna",
        "tourism": "hotel"
      }
    },
    {
      "type": "node",
      "id": 4021895998,
      "lat": 19.0696853,
      "lon": 72.9011307,
      "tags": {
        "name": "Hotel Galaxy View (Oyo Rooms)",
        "tourism": "hotel"
      }
    },
    {
      "type": "node",
      "id": 4113143889,
      "lat": 19.0706484,
      "lon": 72.8398991,
      "tags": {
        "internet_access": "wlan",
        "name": "The UniContinental",
        "tourism": "hotel"
      }
    },
    {
      "type": "node",
      "id": 4133868438,
      "lat": 18.9365103,
      "lon": 72.8386041,
      "tags": {
        "name": "Windsor",
        "tourism": "hotel"
      }
    },
    {
      "type": "node",
      "id": 4175335548,
      "lat": 18.9621067,
      "lon": 72.8214647,
      "tags": {
        "addr:city": "Mumbai",
        "addr:housenumber": "278",
        "addr:postcode": "400007",
        "addr:street": "Maulana Shaukat Ali Marg",
        "contact:phone": "022-23018484",
        "name": "Hotel Briteway",
        "tourism": "hotel"
      }
    },
    {
      "type": "node",
      "id": 4232933891,
      "lat": 18.9614573,
      "lon": 72.823385,
      "tags": {
        "addr:housenumber": "204",
        "addr:postcode": "400004",
        "addr:street": "Patthe Bapurao Marg (Falkland Road)",
        "name": "Delhi Darbar",
        "tourism": "hotel"
      }
    },
    {
      "type": "node",
      "id": 4260270146,
      "lat": 18.9725898,
      "lon": 72.815774,
      "tags": {
        "addr:city": "Mumbai",
        "addr:housenumber": "Tulsiwadi",
        "addr:postcode": "400034",
        "addr:street": "Hatutma Sitaram Ghadi Gaonkar Street",
        "name": "Treebo Trend Rosewood",
        "phone": "+919322800100",
        "tourism": "hotel",
        "website": "https://www.treebo.com/"
      }
    },
    {
      "type": "node",
      "id": 4265701092,
      "lat": 19.1092536,
      "lon": 72.824112,
      "tags": {
        "addr:housenumber": "39/2",
        "addr:postcode": "400049",
        "addr:street": "Juhu Road",
        "internet_access": "wlan",
        "name": "Treebo Sea Side ",
        "tourism": "hotel",
        "website": "https://treebohotels.com/"
      }
    },
    {
      "type": "node",
      "id": 4286138995,
      "lat": 18.9614685,
      "lon": 72.8176559,
      "tags": {
        "addr:housenumber": "307",
        "name": "Empire Hotel",
        "phone": "+91-22-23863355",
        "tourism": "hotel"
      }
    },
    {
      "type": "node",
      "id": 4294055489,
      "lat": 19.1092433,
      "lon": 72.8737582,
      "tags": {
        "name": "The Leela",
        "tourism": "hotel"
      }
    },
    {
      "type": "node",
      "id": 4294951430,
      "lat": 18.9651501,
      "lon": 72.8189355,
      "tags": {
        "name": "Kumkum",
        "source": "AND",
        "tourism": "hotel"
      }
    },
    {
      "type": "node",
      "id": 4310354082,
      "lat": 19.0617235,
      "lon": 72.8325298,
      "tags": {
        "name": "Grand Residency Hotel",
        "tourism": "hotel"
      }
    },
    {
      "type": "node",
      "id": 4326463190,
      "lat": 19.0997138,
      "lon": 72.8880248,
      "tags": {
        "addr:postcode": "400072",
        "addr:street": "90 Feet Road",
        "name": "Hotel Aviva",
        "tourism": "hostel"
      }
    },
    {
      "type": "node",
      "id": 4336602535,
      "lat": 19.1031373,
      "lon": 72.8777603,
      "tags": {
        "addr:city": "Andheri",
        "addr:postcode": "400099",
        "addr:street": "IA Project Road",
        "internet_access": "yes",
        "name": "JW Marriott Mumbai Sahar",
        "operator": "Marriott Hotels",
        "stars": "5",
        "tourism": "hotel"
      }
    },
    {
      "type": "node",
      "id": 4358605289,
      "lat": 19.1096573,
      "lon": 72.8634444,
      "tags": {
        "addr:street": "Charat Singh Road",
        "name:en": "Anjali Homestay",
        "tourism": "hostel"
      }
    },
    {
      "type": "node",
      "id": 4364302047,
      "lat": 19.1112515,
      "lon": 72.8660859,
      "tags": {
        "addr:city": "Mumbai",
        "addr:postcode": "400059",
        "addr:street": "186, New Andheri Link Road, Bhagat Singh Colony,, Andheri East,",
        "description": "\"Nothing can beat its location! Backpacker Panda - Appetite is situated just 3 kms from the  Mumbai Airport while the Chakala Metro Station is stone's throw away!\nBeing the first backpacking hostel in Mumbai, Backpacker Panda - Appetite is more than ju",
        "name": "Backpacker Panda Appetite - Mumbai",
        "phone": "+91 9172313994",
        "source": "Official",
        "tourism": "hostel",
        "website": "https://backpackerpanda.com"
      }
    },
    {
      "type": "node",
      "id": 4427845095,
      "lat": 19.0170997,
      "lon": 72.8445771,
      "tags": {
        "addr:postcode": "400014",
        "addr:street": "Swami Gyan Jiwandas Marg",
        "name": "Ramee Guestline Hotel",
        "opening_hours": "Mo-Su 07:00-01:30",
        "tourism": "hotel"
      }
    },
    {
      "type": "node",
      "id": 4439195499,
      "lat": 18.9361645,
      "lon": 72.8379118,
      "tags": {
        "addr:city": "Mumbai",
        "addr:housenumber": "26",
        "addr:postcode": "400001",
        "addr:street": "Adi Murzban Path",
        "internet_access": "wlan",
        "name:en": "Traveller's Inn",
        "tourism": "hostel"
      }
    },
    {
      "type": "node",
      "id": 4474843292,
      "lat": 18.9638442,
      "lon": 72.8070363,
      "tags": {
        "name:en": "China garden",
        "tourism": "hotel"
      }
    },
    {
      "type": "node",
      "id": 4509939489,
      "lat": 18.9382222,
      "lon": 72.8356604,
      "tags": {
        "name:en": "Hotel Sheetal Inn",
        "tourism": "hotel"
      }
    },
    {
      "type": "node",
      "id": 4509948589,
      "lat": 18.9372661,
      "lon": 72.8374777,
      "tags": {
        "name:en": "Hotel Kalapi",
        "tourism": "hotel"
      }
    },
    {
      "type": "node",
      "id": 4512012190,
      "lat": 18.9430575,
      "lon": 72.8271785,
      "tags": {
        "name:en": "Liberty",
        "tourism": "guest_house"
      }
    },
    {
      "type": "node",
      "id": 4512547390,
      "lat": 19.0957683,
      "lon": 72.8519019,
      "tags": {
        "addr:housenumber": "179",
        "addr:postcode": "400057",
        "addr:street": "Dayaldas Road",
        "email": "book@hotelaircraft.in",
        "internet_access": "wlan",
        "name": "Hindi, Gujarati, English",
        "name:en": "Hotel Aircraft International",
        "opening_hours": "24/7",
        "phone": "+912226187717",
        "tourism": "hotel",
        "website": "http://www.hotelaircraft.in"
      }
    },
    {
      "type": "node",
      "id": 4514854091,
      "lat": 18.9535914,
      "lon": 72.8369265,
      "tags": {
        "name:en": "Hotel Silver Moon",
        "tourism": "hotel"
      }
    },
    {
      "type": "node",
      "id": 4514854290,
      "lat": 18.9527049,
      "lon": 72.8364049,
      "tags": {
        "internet_access": "wlan",
        "name:en": "Hotel Saim Palace",
        "tourism": "hotel"
      }
    },
    {
      "type": "node",
      "id": 4540676592,
      "lat": 18.9531707,
      "lon": 72.8369622,
      "tags": {
        "name:en": "Silver Moon",
        "tourism": "hotel"
      }
    },
    {
      "type": "node",
      "id": 4565028389,
      "lat": 18.9183733,
      "lon": 72.8304078,
      "tags": {
        "name:en": "Maria Lodge",
        "name:ko": "마리아 로지",
        "tourism": "hostel"
      }
    },
    {
      "type": "node",
      "id": 4576972194,
      "lat": 19.2632387,
      "lon": 72.7848297,
      "tags": {
        "addr:postcode": "400068",
        "addr:street": "Uttan Road",
        "name:en": "DARIYA KINARA",
        "opening_hours": "Mo-Su 09:00-04:30",
        "phone": "088982 70303",
        "tourism": "hotel",
        "website": "http://www.dariyakinara.com"
      }
    },
    {
      "type": "node",
      "id": 4585662789,
      "lat": 18.9761073,
      "lon": 72.8340603,
      "tags": {
        "name:en": "welcome guest house",
        "tourism": "hostel"
      }
    },
    {
      "type": "node",
      "id": 4597396890,
      "lat": 18.9588476,
      "lon": 72.817058,
      "tags": {
        "addr:housenumber": "394",
        "addr:postcode": "400007",
        "addr:street": "Grand Road",
        "name:en": "Hotel Tip Top",
        "tourism": "hotel"
      }
    },
    {
      "type": "node",
      "id": 4621598692,
      "lat": 19.2545557,
      "lon": 72.8652701,
      "tags": {
        "addr:street": "Chatrapati Shivaji Road",
        "name:en": "Sanman Lodging & Boring",
        "tourism": "guest_house"
      }
    },
    {
      "type": "node",
      "id": 4621957990,
      "lat": 19.0615295,
      "lon": 72.9008583,
      "tags": {
        "name:en": "Shubash Lodge",
        "tourism": "guest_house"
      }
    },
    {
      "type": "node",
      "id": 4671995490,
      "lat": 18.953372,
      "lon": 72.8360106,
      "tags": {
        "internet_access": "wlan",
        "name:en": "New Residency Park",
        "tourism": "hotel"
      }
    },
    {
      "type": "node",
      "id": 4702930290,
      "lat": 18.9358721,
      "lon": 72.837933,
      "tags": {
        "addr:housenumber": "27/29",
        "addr:postcode": "400038",
        "addr:street": "Adi Murzban Path",
        "internet_access": "wlan",
        "name:en": "A.K. International Hotel",
        "opening_hours": "24/7",
        "phone": "0091 2262370457",
        "tourism": "hotel"
      }
    },
    {
      "type": "node",
      "id": 4706749389,
      "lat": 18.9577778,
      "lon": 72.8366546,
      "tags": {
        "addr:housenumber": "102",
        "addr:postcode": "400009",
        "tourism": "hostel"
      }
    },
    {
      "type": "node",
      "id": 4717746493,
      "lat": 18.9207363,
      "lon": 72.8307296,
      "tags": {
        "name:en": "Bed and Breakfast at Colava",
        "tourism": "guest_house"
      }
    },
    {
      "type": "node",
      "id": 4718063489,
      "lat": 19.0782212,
      "lon": 72.8300971,
      "tags": {
        "addr:city": "Mumbai",
        "addr:housenumber": "22",
        "addr:postcode": "48147",
        "addr:street": "Niedersachsenring",
        "beds": "34",
        "internet_access": "wlan",
        "internet_access:fee": "no",
        "name": "Nirvana Residences",
        "operator": "1589 Hotels",
        "rooms": "34",
        "smoking": "no",
        "stars": "3",
        "tourism": "hotel",
        "wheelchair": "limited"
      }
    },
    {
      "type": "node",
      "id": 4754184421,
      "lat": 18.9151121,
      "lon": 72.8241759,
      "tags": {
        "name:en": "Sea view hotel",
        "tourism": "hotel"
      }
    },
    {
      "type": "node",
      "id": 4770888821,
      "lat": 18.9373119,
      "lon": 72.8338028,
      "tags": {
        "addr:street": "Dr Dadabhai Naoroji Road",
        "internet_access": "wlan",
        "name:en": "Aashiyana dormitory",
        "name:fr": "Aashiyana dormitory",
        "tourism": "hotel"
      }
    },
    {
      "type": "node",
      "id": 4811086425,
      "lat": 19.104795,
      "lon": 72.844276,
      "tags": {
        "tourism": "hostel"
      }
    },
    {
      "type": "node",
      "id": 4841695626,
      "lat": 18.9207841,
      "lon": 72.8322381,
      "tags": {
        "name:en": "Sea view",
        "tourism": "hotel"
      }
    },
    {
      "type": "node",
      "id": 4841716122,
      "lat": 18.9183095,
      "lon": 72.8314336,
      "tags": {
        "name:en": "Janata guesthouse",
        "tourism": "guest_house"
      }
    },
    {
      "type": "node",
      "id": 4841717121,
      "lat": 18.9189716,
      "lon": 72.8309372,
      "tags": {
        "name:en": "Garden hotel",
        "tourism": "hotel"
      }
    },
    {
      "type": "node",
      "id": 4844717528,
      "lat": 18.956986,
      "lon": 72.8203463,
      "tags": {
        "name:en": "Anupam",
        "tourism": "guest_house"
      }
    },
    {
      "type": "node",
      "id": 4844717532,
      "lat": 18.9549477,
      "lon": 72.820896,
      "tags": {
        "name:en": "Girgaon palace",
        "tourism": "hotel"
      }
    },
    {
      "type": "node",
      "id": 4844717541,
      "lat": 19.0453464,
      "lon": 72.8646654,
      "tags": {
        "name:en": "Hotel Ashray",
        "tourism": "hotel"
      }
    },
    {
      "type": "node",
      "id": 4878938456,
      "lat": 19.137742,
      "lon": 72.9131065,
      "tags": {
        "name": "Hostel 16 C Wing",
        "tourism": "hostel"
      }
    },
    {
      "type": "node",
      "id": 4894292587,
      "lat": 18.933694,
      "lon": 72.8251723,
      "tags": {
        "name": "Chateau Windsor",
        "tourism": "hotel"
      }
    },
    {
      "type": "node",
      "id": 5090926921,
      "lat": 19.1006019,
      "lon": 72.8435376,
      "tags": {
        "addr:housenumber": "108",
        "addr:street": "V B Road",
        "internet_access": "wlan",
        "name:de": "Bombay Backpackers Airport",
        "name:en": "Bombay Backpackers Airport",
        "opening_hours": "24/7",
        "tourism": "hostel"
      }
    },
    {
      "type": "node",
      "id": 5158606722,
      "lat": 19.1363896,
      "lon": 72.8990514,
      "tags": {
        "name:en": "Ramada",
        "tourism": "hotel"
      }
    },
    {
      "type": "node",
      "id": 5174623522,
      "lat": 18.9535927,
      "lon": 72.8369408,
      "tags": {
        "tourism": "hotel"
      }
    },
    {
      "type": "node",
      "id": 5273490736,
      "lat": 19.109103,
      "lon": 72.8741445,
      "tags": {
        "brand": "Kempinski",
        "brand:wikidata": "Q671990",
        "name": "Kempinski Leela",
        "tourism": "hotel"
      }
    },
    {
      "type": "node",
      "id": 5304695028,
      "lat": 18.9618494,
      "lon": 72.8229955,
      "tags": {
        "addr:postcode": "400007",
        "addr:street": "Patthe Bapurao Marg (Falkland Road)",
        "name:en": "Liberty hotel",
        "tourism": "hotel"
      }
    },
    {
      "type": "node",
      "id": 5341866121,
      "lat": 19.117486,
      "lon": 72.8802536,
      "tags": {
        "name:en": "Bliss comfort",
        "tourism": "hotel"
      }
    },
    {
      "type": "node",
      "id": 5352114284,
      "lat": 19.1054069,
      "lon": 72.8757789,
      "tags": {
        "name": "Lalit Mumbai",
        "tourism": "hotel"
      }
    },
    {
      "type": "node",
      "id": 5441002023,
      "lat": 18.9207351,
      "lon": 72.8306987,
      "tags": {
        "name": "Bed & Breakfast at Colaba",
        "tourism": "hostel"
      }
    },
    {
      "type": "node",
      "id": 5454216635,
      "lat": 18.9479384,
      "lon": 72.8406448,
      "tags": {
        "tourism": "hotel"
      }
    },
    {
      "type": "node",
      "id": 5545454123,
      "lat": 18.9201826,
      "lon": 72.8307497,
      "tags": {
        "addr:housenumber": "15",
        "addr:street": "Walton Road",
        "internet_access": "wlan",
        "name": "Cowies guest house",
        "tourism": "hostel"
      }
    },
    {
      "type": "node",
      "id": 5570447821,
      "lat": 18.9605019,
      "lon": 72.8208036,
      "tags": {
        "name:en": "Milan Guest House",
        "tourism": "hostel"
      }
    },
    {
      "type": "node",
      "id": 5853450686,
      "lat": 19.0790853,
      "lon": 72.8937445,
      "tags": {
        "name:en": "Takshashila",
        "tourism": "guest_house"
      }
    },
    {
      "type": "node",
      "id": 5880343477,
      "lat": 19.1292503,
      "lon": 72.9141205,
      "tags": {
        "name": "Jalvihar Guest House",
        "tourism": "guest_house"
      }
    },
    {
      "type": "node",
      "id": 5936053486,
      "lat": 18.924126,
      "lon": 72.8320891,
      "tags": {
        "internet_access": "wlan",
        "name:en": "Shabana hotel",
        "tourism": "hotel"
      }
    },
    {
      "type": "node",
      "id": 5938043785,
      "lat": 19.0532539,
      "lon": 72.8284156,
      "tags": {
        "addr:postcode": "400050",
        "addr:street": "Veronica Road",
        "name:en": "Kanara Catholic Association",
        "opening_hours": "Mo-Sa 10:00-17:00",
        "tourism": "hostel"
      }
    },
    {
      "type": "node",
      "id": 5942782826,
      "lat": 19.0899612,
      "lon": 72.838579,
      "tags": {
        "name": "Hotel Alpha International",
        "tourism": "hotel"
      }
    },
    {
      "type": "node",
      "id": 5963331285,
      "lat": 19.099703,
      "lon": 72.8451763,
      "tags": {
        "internet_access": "wlan",
        "name:en": "Locomo Hostel",
        "tourism": "hostel"
      }
    },
    {
      "type": "node",
      "id": 5972234786,
      "lat": 19.0365497,
      "lon": 72.8445767,
      "tags": {
        "addr:housenumber": "1st floor ,",
        "addr:postcode": "400016",
        "addr:street": "Off sitladevi tample rd",
        "name:en": "Amfrid Sequeira Mansion",
        "tourism": "hostel"
      }
    },
    {
      "type": "node",
      "id": 5980826393,
      "lat": 19.1004366,
      "lon": 72.8915848,
      "tags": {
        "air_conditioning": "yes",
        "internet_access": "wlan",
        "name:en": "Fab magnet hotel",
        "tourism": "hotel"
      }
    },
    {
      "type": "node",
      "id": 6072360585,
      "lat": 19.1078871,
      "lon": 72.8596788,
      "tags": {
        "name:en": "Hotel Check Inn Andheri",
        "tourism": "hotel"
      }
    },
    {
      "type": "node",
      "id": 6175049192,
      "lat": 19.1001194,
      "lon": 72.8450869,
      "tags": {
        "name:en": "Locomo Hostel",
        "tourism": "hostel"
      }
    },
    {
      "type": "node",
      "id": 6180293085,
      "lat": 18.9181327,
      "lon": 72.8307586,
      "tags": {
        "tourism": "hotel"
      }
    },
    {
      "type": "node",
      "id": 6185592087,
      "lat": 19.1110247,
      "lon": 72.8603136,
      "tags": {
        "addr:postcode": "400 099",
        "addr:street": "New Link Road",
        "email": "themirador@themirador.com",
        "internet_access": "wlan",
        "name:en": "The Mirador Hotel",
        "phone": "+912266495000",
        "tourism": "hotel",
        "website": "https://www.themirador.com/"
      }
    },
    {
      "type": "node",
      "id": 6185698086,
      "lat": 18.9556766,
      "lon": 72.8369019,
      "tags": {
        "name:en": "Hotel Al Mehraj (correct location)",
        "tourism": "hotel"
      }
    },
    {
      "type": "node",
      "id": 6187201038,
      "lat": 19.1013126,
      "lon": 72.8905981,
      "tags": {
        "internet_access": "wlan",
        "name:en": "Blossom Dormitory",
        "tourism": "hostel"
      }
    },
    {
      "type": "node",
      "id": 6226480987,
      "lat": 19.0962586,
      "lon": 72.8947104,
      "tags": {
        "name": "Hotel Blue Pearl Residency",
        "tourism": "hotel"
      }
    },
    {
      "type": "node",
      "id": 6229440187,
      "lat": 19.1385003,
      "lon": 72.9303859,
      "tags": {
        "name:en": "Anantha Executive Suites",
        "phone": "917506333243",
        "tourism": "hotel"
      }
    },
    {
      "type": "node",
      "id": 6300587289,
      "lat": 18.9123782,
      "lon": 72.8218389,
      "tags": {
        "name:en": "Everest hotel",
        "tourism": "hotel"
      }
    },
    {
      "type": "node",
      "id": 6789090825,
      "lat": 19.0818622,
      "lon": 72.8440285,
      "tags": {
        "addr:city": "Mumbai",
        "addr:housenumber": "1201",
        "addr:postcode": "400055",
        "addr:street": "Rukmini Smruti",
        "name": "Aristo Hospitality Apartment Santacruz",
        "tourism": "guest_house"
      }
    },
    {
      "type": "node",
      "id": 6796225585,
      "lat": 19.0986249,
      "lon": 72.8923,
      "tags": {
        "addr:postcode": "400072",
        "addr:street": "Andheri Ghatkopar Link Road",
        "email": "hotelmeriton2019@gmail.com",
        "internet_access": "wlan",
        "name:en": "Hotel Meriton",
        "opening_hours": "24/7",
        "phone": "9167034212",
        "tourism": "hotel",
        "website": "https://www.hotelmeriton.in/"
      }
    },
    {
      "type": "node",
      "id": 6801919195,
      "lat": 19.125606,
      "lon": 72.9194674,
      "tags": {
        "name": "Red House Hostel",
        "tourism": "hotel"
      }
    },
    {
      "type": "node",
      "id": 6801919197,
      "lat": 19.1258078,
      "lon": 72.9194489,
      "tags": {
        "name": "Powai Dormitory, Gold Finance, Manappuram",
        "tourism": "hostel"
      }
    },
    {
      "type": "node",
      "id": 6865999285,
      "lat": 19.1154575,
      "lon": 72.8602512,
      "tags": {
        "name:en": "Sai Palace Hotel",
        "tourism": "hotel"
      }
    },
    {
      "type": "node",
      "id": 6952131532,
      "lat": 19.2580587,
      "lon": 72.7839137,
      "tags": {
        "name:en": "Sun beach resort",
        "tourism": "hotel"
      }
    },
    {
      "type": "node",
      "id": 7045173523,
      "lat": 19.0650925,
      "lon": 72.834958,
      "tags": {
        "addr:city": "Bandra, Mumbai",
        "addr:housenumber": "519",
        "addr:postcode": "400050",
        "addr:street": "Vithalbhai Patel Road",
        "internet_access": "yes",
        "internet_access:fee": "no",
        "name": "Hotel Linkway",
        "tourism": "hotel",
        "website": "https://hotellinkway.com/"
      }
    },
    {
      "type": "node",
      "id": 7109159886,
      "lat": 18.9170212,
      "lon": 72.8299491,
      "tags": {
        "name:en": "Fariyas Hotel",
        "tourism": "hotel"
      }
    },
    {
      "type": "node",
      "id": 7137339285,
      "lat": 18.9237234,
      "lon": 72.8326873,
      "tags": {
        "addr:street": "Mahakavi Bhushan Road (Lansdowne Road)",
        "internet_access": "wlan",
        "name:en": "Abode Hotel",
        "tourism": "hotel"
      }
    },
    {
      "type": "node",
      "id": 7193739486,
      "lat": 18.9623451,
      "lon": 72.8287891,
      "tags": {
        "addr:housenumber": "253/255",
        "addr:street": "Maulana Azad Road (Duncan Road)",
        "internet_access": "wlan",
        "name:en": "Amber Palace Hotel",
        "tourism": "hotel"
      }
    },
    {
      "type": "node",
      "id": 7920057609,
      "lat": 19.0639301,
      "lon": 72.8961413,
      "tags": {
        "addr:city": "Chembur, Mumbai",
        "addr:housenumber": "Shop No, 43, Shell Colony Rd, Shramjivi Nagar",
        "addr:postcode": "400071",
        "addr:street": "Sai Baba Nagar",
        "internet_access": "no",
        "name": "Hotel Sunny",
        "phone": "+912225223549",
        "tourism": "hotel"
      }
    },
    {
      "type": "node",
      "id": 7944535592,
      "lat": 19.0880983,
      "lon": 72.8960468,
      "tags": {
        "backcountry": "yes",
        "factory": "industrial painting",
        "tourism": "camp_site"
      }
    },
    {
      "type": "node",
      "id": 8032208496,
      "lat": 19.0822013,
      "lon": 72.8473955,
      "tags": {
        "addr:city": "mumbai",
        "addr:housenumber": "18/137",
        "addr:postcode": "400055",
        "addr:street": "anand nagar , vakola, santacruz east",
        "guest_house": "bed_and_breakfast",
        "internet_access": "wlan",
        "internet_access:fee": "no",
        "name": "Nap Manor Hostels",
        "tourism": "hostel"
      }
    },
    {
      "type": "node",
      "id": 8219843151,
      "lat": 18.948511,
      "lon": 72.840617,
      "tags": {
        "name": "Elphinstone Hotel",
        "tourism": "hotel"
      }
    },
    {
      "type": "node",
      "id": 8447999692,
      "lat": 19.0555671,
      "lon": 72.8243892,
      "tags": {
        "brand": "Park Inn",
        "brand:wikidata": "Q60711675",
        "brand:wikipedia": "ru:Park Inn by Radisson",
        "email": "parkinn@gmail.com",
        "fax": "+2398345674",
        "internet_access": "yes",
        "internet_access:fee": "customers",
        "internet_access:ssid": "athalis",
        "name": "Park Inn",
        "payment:cash": "yes",
        "payment:credit_cards": "yes",
        "payment:debit_cards": "yes",
        "payment:mastercard": "yes",
        "rooms": "3",
        "tourism": "hotel",
        "wheelchair": "no"
      }
    },
    {
      "type": "node",
      "id": 8457285999,
      "lat": 18.9242562,
      "lon": 72.8309479,
      "tags": {
        "name": "Bombay YMCA Central Branch",
        "phone": "+912222020079",
        "tourism": "hostel",
        "website": "https://www.ymcabombay.org/"
      }
    },
    {
      "type": "node",
      "id": 9132436362,
      "lat": 19.0821766,
      "lon": 72.9126856,
      "tags": {
        "backcountry": "yes",
        "construction": "stop",
        "name": "Pant Nagar Station",
        "public_transport": "stop_position",
        "tourism": "camp_site"
      }
    },
    {
      "type": "node",
      "id": 9139686416,
      "lat": 19.140773,
      "lon": 72.8201608,
      "tags": {
        "name": "Hotel Astro",
        "tourism": "hotel",
        "wheelchair": "no"
      }
    },
    {
      "type": "node",
      "id": 9139716438,
      "lat": 19.1412475,
      "lon": 72.819798,
      "tags": {
        "name": "Hotel Yashodha Residency",
        "tourism": "hotel"
      }
    },
    {
      "type": "node",
      "id": 9139716443,
      "lat": 19.1410159,
      "lon": 72.819989,
      "tags": {
        "name": "De Classico Hotel",
        "tourism": "hotel",
        "wheelchair": "no"
      }
    },
    {
      "type": "node",
      "id": 9141434908,
      "lat": 19.1373163,
      "lon": 72.8231538,
      "tags": {
        "description": "Budget hotel and dormitory",
        "name": "Deluxe Comfort",
        "tourism": "hotel",
        "wheelchair": "no"
      }
    },
    {
      "type": "node",
      "id": 9141434909,
      "lat": 19.1369647,
      "lon": 72.823227,
      "tags": {
        "name": "Rigga Inn",
        "tourism": "hotel",
        "wheelchair": "no"
      }
    },
    {
      "type": "node",
      "id": 9141434910,
      "lat": 19.1373666,
      "lon": 72.8231089,
      "tags": {
        "name": "Hotel Signature Inn",
        "tourism": "hotel",
        "wheelchair": "no"
      }
    },
    {
      "type": "node",
      "id": 9141434911,
      "lat": 19.1370297,
      "lon": 72.8231836,
      "tags": {
        "name": "Art Hotel",
        "tourism": "hotel",
        "wheelchair": "no"
      }
    },
    {
      "type": "node",
      "id": 9740590191,
      "lat": 19.0289955,
      "lon": 72.8633023,
      "tags": {
        "guest_house": "guest_house",
        "name": "Central Government Touring Officers Guest House",
        "operator": "Central Public Works Department",
        "tourism": "guest_house"
      }
    },
    {
      "type": "node",
      "id": 9740687823,
      "lat": 18.9594735,
      "lon": 72.8012181,
      "tags": {
        "guest_house": "guest_house",
        "name": "Central Government Touring Officers Guest House",
        "operator": "Central Public Works Department",
        "tourism": "guest_house"
      }
    },
    {
      "type": "node",
      "id": 9740687824,
      "lat": 18.9386001,
      "lon": 72.8274228,
      "tags": {
        "guest_house": "guest_house",
        "name": "Central Government Touring Officers Guest House",
        "operator": "Central Public Works Department",
        "tourism": "guest_house"
      }
    },
    {
      "type": "node",
      "id": 10173118717,
      "lat": 18.9618192,
      "lon": 72.8194832,
      "tags": {
        "name:en": "Treebo Trip Heraa International",
        "tourism": "hotel"
      }
    },
    {
      "type": "node",
      "id": 10226892317,
      "lat": 19.1102735,
      "lon": 72.8818577,
      "tags": {
        "internet_access": "wlan",
        "name": "Mumbai Staytion Hostel",
        "tourism": "hostel"
      }
    },
    {
      "type": "node",
      "id": 10242157433,
      "lat": 19.1910591,
      "lon": 72.841774,
      "tags": {
        "addr:street": "Landmark Residency Adarsh Road Liberty Garden Road Opp. S.N.D.T College, Malad West, Mumbai 400064 India",
        "description": "3 star",
        "name": "Landmark Residency",
        "opening_hours": "Mo-Su 12:00-11:00",
        "price": "5000-6000 INR/day",
        "tourism": "hotel",
        "website": "https://www.tripadvisor.in/Hotel_Review-g304554-d6033440-Reviews-Landmark_Residency-Mumbai_Maharashtra.html"
      }
    },
    {
      "type": "node",
      "id": 10246465510,
      "lat": 19.0646957,
      "lon": 72.849854,
      "tags": {
        "name:en": "Forrest Hostels",
        "tourism": "hostel"
      }
    },
    {
      "type": "node",
      "id": 10261798109,
      "lat": 19.0629291,
      "lon": 72.8483261,
      "tags": {
        "name:en": "Hotel Udipi Bhavan",
        "tourism": "hotel"
      }
    },
    {
      "type": "node",
      "id": 10715797457,
      "lat": 19.1052359,
      "lon": 72.8613339,
      "tags": {
        "addr:city": "Mumbai",
        "addr:housenumber": "B-403,suba zircon apartments",
        "addr:postcode": "400099",
        "addr:street": "near suba international hotel,sahar road chakala andheri east.",
        "air_conditioning": "yes",
        "brand": "Blue Bells Resdency-Mumbai Airport",
        "email": "info.bluebellsresidency@gmail.com",
        "internet_access": "yes",
        "internet_access:fee": "no",
        "name": "Blue Bells Residency-Mumbai Airport",
        "phone": "8779477720 / 9920261461",
        "tourism": "hotel"
      }
    },
    {
      "type": "node",
      "id": 10767848892,
      "lat": 19.1261081,
      "lon": 72.8933908,
      "tags": {
        "name": "Hotel Sunshine Lodging",
        "tourism": "hotel"
      }
    },
    {
      "type": "node",
      "id": 10929744305,
      "lat": 19.1090204,
      "lon": 72.8562068,
      "tags": {
        "name:en": "Astropods",
        "tourism": "hotel"
      }
    },
    {
      "type": "node",
      "id": 11055333401,
      "lat": 18.9506798,
      "lon": 72.8347614,
      "tags": {
        "name": "Al Fatah",
        "tourism": "hotel"
      }
    },
    {
      "type": "node",
      "id": 11136085505,
      "lat": 19.0968574,
      "lon": 72.8932337,
      "tags": {
        "tourism": "hostel"
      }
    },
    {
      "type": "node",
      "id": 11217394316,
      "lat": 19.1084859,
      "lon": 72.8588001,
      "tags": {
        "brand": "Hotel Indigo",
        "brand:wikidata": "Q5911596",
        "name": "Hotel Indigo",
        "tourism": "hotel"
      }
    },
    {
      "type": "node",
      "id": 11343768069,
      "lat": 18.9337029,
      "lon": 72.8247791,
      "tags": {
        "addr:city": "Mumbai",
        "addr:district": "Mumbai",
        "addr:housenumber": "Churchgate",
        "addr:postcode": "400020",
        "addr:street": "Veer Nariman Road",
        "name:en": "The Ambassador",
        "tourism": "hotel"
      }
    },
    {
      "type": "node",
      "id": 11426738572,
      "lat": 19.0916692,
      "lon": 72.8280193,
      "tags": {
        "name": "Hyatt Centric",
        "tourism": "hotel"
      }
    },
    {
      "type": "node",
      "id": 11445773994,
      "lat": 19.1012257,
      "lon": 72.884606,
      "tags": {
        "name": "Hotel Regal International",
        "tourism": "hotel"
      }
    },
    {
      "type": "node",
      "id": 11445777740,
      "lat": 19.0849255,
      "lon": 72.8872426,
      "tags": {
        "name": "Hotel Dwarka",
        "tourism": "hotel"
      }
    },
    {
      "type": "node",
      "id": 11445806040,
      "lat": 19.1089323,
      "lon": 72.876786,
      "tags": {
        "name": "Mirages",
        "tourism": "hotel"
      }
    },
    {
      "type": "node",
      "id": 11449429773,
      "lat": 19.0523856,
      "lon": 72.8666168,
      "tags": {
        "name": "Hotel home town",
        "tourism": "hotel"
      }
    },
    {
      "type": "node",
      "id": 11451989748,
      "lat": 19.0247267,
      "lon": 72.8355588,
      "tags": {
        "name": "Amigo Hotel",
        "tourism": "hotel"
      }
    },
    {
      "type": "node",
      "id": 11465204240,
      "lat": 18.9392416,
      "lon": 72.8383645,
      "tags": {
        "check_date": "2023-12-29",
        "name": "Hotel Heraa",
        "tourism": "hotel"
      }
    },
    {
      "type": "node",
      "id": 11521060369,
      "lat": 19.0576726,
      "lon": 72.8386726,
      "tags": {
        "internet_access": "wlan",
        "name:en": "Solo Backpacker",
        "tourism": "hostel"
      }
    },
    {
      "type": "node",
      "id": 11530321946,
      "lat": 19.1438319,
      "lon": 72.8310718,
      "tags": {
        "addr:city": "Andheri (W), Mumbai",
        "addr:district": "Mumbai",
        "addr:postcode": "400102",
        "addr:street": "Kamalakarpant L Walawalkar Mg",
        "air_conditioning": "yes",
        "guest_house": "student_accomodation",
        "internet_access": "yes",
        "name": "Vagad Student Hostel",
        "tourism": "hostel"
      }
    },
    {
      "type": "node",
      "id": 11609355462,
      "lat": 19.1189559,
      "lon": 72.8416903,
      "tags": {
        "addr:street": "Vp Road",
        "name": "Alfa Executive",
        "phone": "+91-9321445588",
        "tourism": "hotel",
        "website": "https://hotelalfaexecutive.com/"
      }
    },
    {
      "type": "node",
      "id": 11698087764,
      "lat": 19.104652,
      "lon": 72.8867082,
      "tags": {
        "name": "Mumbai Metro-The Excecutive",
        "tourism": "motel"
      }
    },
    {
      "type": "node",
      "id": 11757650169,
      "lat": 19.1425757,
      "lon": 72.8323115,
      "tags": {
        "name:en": "ZEST STAYS 1054 (ANDHERI WEST)",
        "tourism": "hostel"
      }
    },
    {
      "type": "node",
      "id": 11873385169,
      "lat": 19.1016152,
      "lon": 72.8899963,
      "tags": {
        "name:en": "Mabrook Dormitory",
        "tourism": "hostel"
      }
    },
    {
      "type": "node",
      "id": 11911682369,
      "lat": 19.2306853,
      "lon": 72.8555533,
      "tags": {
        "contact:facebook": "Thebykehotels.india",
        "contact:instagram": "thebykehotels",
        "email": "reservation.borivali@thebyke.com",
        "internet_access": "wlan",
        "name": "The Byke Delotel",
        "tourism": "hotel",
        "website": "http://\n\n\n\n\n\nwww.thebyke.com"
      }
    },
    {
      "type": "node",
      "id": 12223944101,
      "lat": 19.0988777,
      "lon": 72.8812339,
      "tags": {
        "addr:street": "Sakinaka Tele Exchange Lane",
        "internet_access": "wlan",
        "name": "Prakash Inn",
        "phone": "7045970972",
        "tourism": "hotel"
      }
    },
    {
      "type": "node",
      "id": 12249980901,
      "lat": 19.0971738,
      "lon": 72.8542691,
      "tags": {
        "addr:postcode": "400099",
        "addr:street": "Nehru Road",
        "name": "T24 Retro",
        "self_service": "yes",
        "tourism": "hotel",
        "website": "https://t24retro.in"
      }
    },
    {
      "type": "node",
      "id": 12298890609,
      "lat": 18.9396583,
      "lon": 72.8385217,
      "tags": {
        "name": "Ship Hotel",
        "tourism": "hotel"
      }
    },
    {
      "type": "node",
      "id": 12346531475,
      "lat": 19.0563315,
      "lon": 72.8342536,
      "tags": {
        "name": "Hotel Metro Palace",
        "name:en": "Hotel Metro Palace",
        "tourism": "hotel"
      }
    },
    {
      "type": "node",
      "id": 12389467101,
      "lat": 19.1160634,
      "lon": 72.8503185,
      "tags": {
        "addr:postcode": "400069",
        "addr:street": "Teli Gali",
        "internet_access": "wlan",
        "name": "Ginger Mumbai, Andheri East",
        "name:en": "Ginger Mumbai, Andheri East",
        "opening_hours": "24/7",
        "tourism": "hotel",
        "website": "https://www.gingerhotels.com/ginger-mumbai-andheri-east"
      }
    },
    {
      "type": "node",
      "id": 12397200851,
      "lat": 19.1203432,
      "lon": 72.9252049,
      "tags": {
        "addr:city": "Mumbai",
        "addr:district": "Maharashtra",
        "addr:housenumber": "17",
        "addr:postcode": "400083",
        "addr:street": "Lal Bahadur Shastri Marg",
        "brand": "Ibis",
        "brand:wikidata": "Q920166",
        "internet_access": "wlan",
        "internet_access:fee": "customers",
        "name": "ibis Mumbai Vikhroli",
        "phone": "+91 22 6920 9999",
        "tourism": "hotel",
        "website": "https://all.accor.com"
      }
    },
    {
      "type": "way",
      "id": 27036055,
      "nodes": [
        296352269,
        296352282,
        296352286,
        296352293,
        296352269
      ],
      "tags": {
        "addr:city": "Mumbai",
        "addr:postcode": "400049",
        "addr:street": "Juhu Tara Road",
        "brand": "JW Marriott",
        "brand:wikidata": "Q1067636",
        "brand:wikipedia": "en:JW Marriott Hotels",
        "landuse": "commercial",
        "name": "JW Marriott",
        "phone": "+91 22 6693 3000",
        "tourism": "hotel"
      }
    },
    {
      "type": "way",
      "id": 28846517,
      "nodes": [
        317151018,
        317151019,
        317151020,
        7018006385,
        317151022,
        317151023,
        317151024,
        317151025,
        317151026,
        317151029,
        317151030,
        317151031,
        317151032,
        317151034,
        317151035,
        317151036,
        317151018
      ],
      "tags": {
        "addr:city": "Mumbai",
        "addr:country": "IN",
        "addr:district": "Mumbai",
        "addr:postcode": "400001",
        "addr:street": "Prem J. Ramchandani Road",
        "brand": "Taj",
        "brand:wikidata": "Q1521893",
        "building": "yes",
        "description": "As the leading harbour icon in India, The Taj Mahal Palace, Mumbai commands a regal view of the Gateway of India and the Arabian Sea. It epitomises the enduring commitment to excellence, heritage, and service that the Taj brand is renowned for globally.",
        "internet_access": "yes",
        "internet_access:fee": "customers",
        "name": "Taj Mahal Palace",
        "name:zh": "泰姬玛哈酒店",
        "official_name": "Taj Mahal Palace and Tower",
        "operator": "Indian Hotels Company Limited",
        "phone": "022 6665 3366",
        "rating": "Five Stars",
        "tourism": "hotel",
        "website": "https://www.tajhotels.com/en-in/hotels/taj-mahal-palace-mumbai?utm_medium=Local&utm_source=Google&utm_campaign=The-Taj-Mahal-Palace-Mumbai",
        "wikidata": "Q19104",
        "wikimedia_commons": "Category:Taj Mahal Palace Hotel",
        "wikipedia": "en:Taj Mahal Palace Hotel"
      }
    },
    {
      "type": "way",
      "id": 38833386,
      "nodes": [
        460996897,
        460996911,
        460996931,
        460996950,
        460996897
      ],
      "tags": {
        "building": "apartments",
        "name": "Regency Hotel",
        "source": "Yahoo",
        "tourism": "hotel"
      }
    },
    {
      "type": "way",
      "id": 39165067,
      "nodes": [
        469128618,
        469128619,
        469128620,
        469128621,
        469128618
      ],
      "tags": {
        "building": "apartments",
        "building:levels": "10",
        "name": "Hotel Shalimar",
        "source": "Yahoo",
        "tourism": "hotel"
      }
    },
    {
      "type": "way",
      "id": 39354898,
      "nodes": [
        471536431,
        471536432,
        471536433,
        471536434,
        471536431
      ],
      "tags": {
        "area": "yes",
        "building": "yes",
        "building:levels": "10",
        "check_date": "2024-09-24",
        "name": "Sea Princess Hotel",
        "source": "Yahoo",
        "tourism": "hotel"
      }
    },
    {
      "type": "way",
      "id": 40295883,
      "nodes": [
        486114978,
        486114991,
        486114998,
        486115003,
        486114978
      ],
      "tags": {
        "addr:city": "Mumbai",
        "addr:postcode": "400005",
        "building": "yes",
        "name": "Taj President",
        "operator": "Taj Group of Hotels",
        "smoking": "outside",
        "tourism": "hotel"
      }
    },
    {
      "type": "way",
      "id": 40309557,
      "nodes": [
        486401040,
        486401045,
        486401051,
        486401059,
        486401040
      ],
      "tags": {
        "building": "apartments",
        "building:levels": "6",
        "name": "Hotel Marine Plaza",
        "tourism": "hotel"
      }
    },
    {
      "type": "way",
      "id": 40379745,
      "nodes": [
        487970153,
        487970326,
        487970378,
        487970432,
        487970153
      ],
      "tags": {
        "building": "yes",
        "name": "Hotel Prosser's",
        "source": "Yahoo",
        "tourism": "hotel"
      }
    },
    {
      "type": "way",
      "id": 40381052,
      "nodes": [
        487995471,
        487995492,
        487995502,
        487995518,
        487995471
      ],
      "tags": {
        "addr:city": "Mumbai",
        "building": "yes",
        "name": "Hotel Harbour View",
        "source": "Yahoo",
        "tourism": "hotel"
      }
    },
    {
      "type": "way",
      "id": 40381057,
      "nodes": [
        487995568,
        487995578,
        487995587,
        487995592,
        487995568
      ],
      "tags": {
        "building": "yes",
        "name": "Sea Palace Hotel",
        "source": "Yahoo",
        "tourism": "hotel"
      }
    },
    {
      "type": "way",
      "id": 40382485,
      "nodes": [
        488034978,
        488034980,
        488034990,
        488034995,
        488034978
      ],
      "tags": {
        "building": "yes",
        "name": "Bentley's Hotel; Jer Manzil 1930",
        "tourism": "hotel"
      }
    },
    {
      "type": "way",
      "id": 40384135,
      "nodes": [
        488072827,
        488072831,
        488072836,
        488072839,
        488072827
      ],
      "tags": {
        "building": "yes",
        "name": "Hotel Oliver",
        "source": "Yahoo",
        "tourism": "hotel"
      }
    },
    {
      "type": "way",
      "id": 40384228,
      "nodes": [
        488085019,
        488085030,
        488085040,
        488085051,
        488085019
      ],
      "tags": {
        "addr:city": "Mumbai",
        "building": "yes",
        "name": "Garden Hotel",
        "tourism": "hotel"
      }
    },
    {
      "type": "way",
      "id": 40384402,
      "nodes": [
        488110190,
        488110198,
        488110205,
        488110212,
        488110190
      ],
      "tags": {
        "addr:city": "Mumbai",
        "addr:housenumber": "15",
        "addr:postcode": "400005",
        "addr:street": "Walton Road",
        "building": "yes",
        "description": "Backpacker Panda Colaba is located in a favorite destination among tourist with plenty of options to roam around and be amused by narrow alleys, shopping sprees to the intricate colonial architecture of marvel. The gateway of India, famous Leopard cafe.",
        "email": "travel@backpackerpanda.com",
        "internet_access": "yes",
        "name": "Backpacker Panda Colaba",
        "operator": "Backpaker Panda Pvt Ltd",
        "rooms": "25",
        "stars": "4",
        "tourism": "hostel"
      }
    },
    {
      "type": "way",
      "id": 40384404,
      "nodes": [
        488110235,
        488110240,
        488110248,
        488110265,
        488110235
      ],
      "tags": {
        "building": "yes",
        "name": "Hotel Godwin",
        "source": "Yahoo",
        "tourism": "hotel"
      }
    },
    {
      "type": "way",
      "id": 40384407,
      "nodes": [
        488110350,
        488110353,
        488110358,
        488110371,
        488110350
      ],
      "tags": {
        "building": "yes",
        "name": "Hotel Ascot",
        "source": "Yahoo",
        "tourism": "hotel"
      }
    },
    {
      "type": "way",
      "id": 40387606,
      "nodes": [
        488190281,
        488190284,
        488190289,
        488190294,
        488190281
      ],
      "tags": {
        "building": "yes",
        "name": "Salvation Army Hostel",
        "tourism": "hostel"
      }
    },
    {
      "type": "way",
      "id": 40388248,
      "nodes": [
        488208684,
        488208693,
        488208714,
        488208721,
        488208684
      ],
      "tags": {
        "building": "yes",
        "name": "Hotel Regency",
        "tourism": "hotel"
      }
    },
    {
      "type": "way",
      "id": 40388251,
      "nodes": [
        488208755,
        488208765,
        488208782,
        488208796,
        488208755
      ],
      "tags": {
        "addr:city": "Mumbai",
        "addr:housenumber": "5",
        "addr:postcode": "400039",
        "addr:street": "Battery Street",
        "building": "yes",
        "name": "Gordon House Hotel",
        "name:hi": "गॉर्डन हाउस होटल्स",
        "phone": "+91-22-6124-5800",
        "tourism": "hotel",
        "website": "https://ghhotel.com/"
      }
    },
    {
      "type": "way",
      "id": 40388254,
      "nodes": [
        488208872,
        488208878,
        488208887,
        488208892,
        488208872
      ],
      "tags": {
        "building": "yes",
        "name": "Hotel Suba Palace",
        "tourism": "hotel"
      }
    },
    {
      "type": "way",
      "id": 40388258,
      "nodes": [
        488208913,
        488208919,
        488208941,
        488208950,
        488208913
      ],
      "tags": {
        "building": "yes",
        "name": "Apollo Hotel",
        "tourism": "hotel"
      }
    },
    {
      "type": "way",
      "id": 40772065,
      "nodes": [
        495550488,
        6638799204,
        6638799205,
        495550486,
        6638799206,
        495550484,
        6638799207,
        495550480,
        6638799208,
        495550478,
        495550474,
        6638799209,
        495550470,
        495550467,
        6638799210,
        495550681,
        6638799211,
        495550506,
        6638799212,
        495550505,
        6638799213,
        495550504,
        6638799214,
        495550503,
        6638799215,
        6638799216,
        495550501,
        6638799217,
        6638799218,
        6638799219,
        495550499,
        6638799220,
        6638799221,
        495550495,
        6638799222,
        495550676,
        6638799223,
        6638799224,
        495550492,
        6638799225,
        6638799226,
        6638799227,
        495550491,
        6638799228,
        6638799229,
        6638799230,
        495550488
      ],
      "tags": {
        "building": "hotel",
        "name": "Sahara Star",
        "name:zh": "撒哈拉之星",
        "tourism": "hotel"
      }
    },
    {
      "type": "way",
      "id": 40819147,
      "nodes": [
        496308664,
        496308668,
        496308676,
        496308681,
        496308684,
        496308686,
        496308689,
        496308695,
        496308702,
        496308706,
        496308713,
        496308718,
        496308723,
        496308729,
        496308735,
        496308737,
        496308738,
        496308664
      ],
      "tags": {
        "building": "hotel",
        "name": "ITC Grand Maratha",
        "source": "Yahoo",
        "tourism": "hotel"
      }
    },
    {
      "type": "way",
      "id": 40819205,
      "nodes": [
        496311738,
        496311739,
        496311741,
        496311743,
        496311738
      ],
      "tags": {
        "addr:city": "Mumbai",
        "addr:country": "IN",
        "addr:postcode": "400099",
        "addr:street": "Sahar Elevated Road",
        "brand": "Hilton",
        "building": "hotel",
        "contact:facebook": "https://www.facebook.com/HiltonMumbaiInternationalAirport",
        "contact:instagram": "https://www.instagram.com/hiltonmumbai",
        "contact:linkedin": "https://www.linkedin.com/company/hilton-mumbai-international-airport/",
        "contact:twitter": "https://twitter.com/HiltonMumbai",
        "contact:youtube": "https://www.youtube.com/c/HiltonMumbaiInternationalAirport",
        "email": "reservations.mumbai@hilton.com",
        "internet_access": "wlan",
        "name": "Hilton Mumbai International Airport",
        "operator": "Hilton",
        "phone": "+91 22 2838 0000",
        "rooms": "171",
        "smoking": "yes",
        "stars": "5",
        "tourism": "hotel",
        "website": "https://www.hilton.com/en/hotels/bomaphi-hilton-mumbai-international-airport/?WT.mc_id=zELWAKN0APAC1HI2DMH3LocalSearch4DGGenericx6BOMAPHI",
        "wheelchair": "yes"
      }
    },
    {
      "type": "way",
      "id": 46717565,
      "nodes": [
        597261809,
        597261810,
        597261811,
        597261812,
        597261809
      ],
      "tags": {
        "addr:city": "Mumbai",
        "addr:housenumber": "45",
        "building": "apartments",
        "email": "westhotel@hathway.com",
        "fax": "+91 22 2305 7506",
        "name": "West End Hotel",
        "phone": "+91 22 2203 9121",
        "source": "Yahoo",
        "tourism": "hotel",
        "url": "www.westendhotelmumbai.com"
      }
    },
    {
      "type": "way",
      "id": 46721513,
      "nodes": [
        597291817,
        597291818,
        597291819,
        597291820,
        597291821,
        597291822,
        597291823,
        597291824,
        597291825,
        597291826,
        597291827,
        597291829,
        597291817
      ],
      "tags": {
        "building": "yes",
        "name": "ITC Grand Central",
        "tourism": "hotel"
      }
    },
    {
      "type": "way",
      "id": 50880774,
      "nodes": [
        648840754,
        648840755,
        648840756,
        648840758,
        648840754
      ],
      "tags": {
        "building": "yes",
        "name": "Grand Hotel",
        "tourism": "hotel"
      }
    },
    {
      "type": "way",
      "id": 54224854,
      "nodes": [
        683781604,
        683781831,
        683781613,
        683781832,
        683781614,
        683781833,
        683781615,
        683781834,
        683781616,
        683781617,
        683781835,
        683781618,
        683781836,
        683781619,
        683781837,
        683781620,
        683781838,
        683781607,
        683781608,
        683781588,
        683781589,
        683781590,
        683781591,
        683781592,
        683781593,
        683781594,
        683781595,
        683781596,
        683781597,
        683781598,
        683781599,
        683781600,
        683781601,
        683781602,
        683781603,
        683781839,
        683781604
      ],
      "tags": {
        "addr:city": "Mumbai",
        "addr:street": "Nathalal M. Parikh Road (Wodehouse Road)",
        "building": "commercial",
        "name": "Taj Wellington Mews",
        "operator": "Indian Hotels Company Limited",
        "smoking": "outside",
        "tourism": "hotel"
      }
    },
    {
      "type": "way",
      "id": 55375575,
      "nodes": [
        695666449,
        695666450,
        695666451,
        695666452,
        695666453,
        695666454,
        695666449
      ],
      "tags": {
        "name": "SPCE boys hostel",
        "tourism": "hostel"
      }
    },
    {
      "type": "way",
      "id": 74143794,
      "nodes": [
        877090745,
        877090747,
        5992996055,
        877090750,
        877090752,
        877090754,
        4144471009,
        877090745
      ],
      "tags": {
        "addr:city": "Mumbai",
        "brand": "Taj",
        "brand:wikidata": "Q1521893",
        "email": "landsend.mumbai@tajhotels.com",
        "fax": "0091 22 6699-4488",
        "name": "Taj Lands End",
        "official_name": "Taj Hotels",
        "operator": "Taj Group",
        "phone": "+91-22-66681234",
        "stars": "5",
        "tourism": "hotel"
      }
    },
    {
      "type": "way",
      "id": 102537882,
      "nodes": [
        1184176411,
        1184176412,
        1184176413,
        1184176414,
        1184176411
      ],
      "tags": {
        "landuse": "construction",
        "name": "Grand Sarowar Premiere",
        "tourism": "hotel"
      }
    },
    {
      "type": "way",
      "id": 113721904,
      "nodes": [
        1289204436,
        1289204502,
        1289204498,
        1289204435,
        1289204474,
        1289204455,
        1289204436
      ],
      "tags": {
        "addr:city": "Mumbai",
        "addr:housenumber": "807",
        "addr:postcode": "400014",
        "addr:street": "Tilak Road",
        "building": "yes",
        "name": "Hotel City Point",
        "tourism": "hotel"
      }
    },
    {
      "type": "way",
      "id": 116328142,
      "nodes": [
        1311675190,
        1311675192,
        1311675189,
        1311675188,
        1311675191,
        1311675190
      ],
      "tags": {
        "designation": "Accommodation",
        "name": "Adarsh Hotel",
        "source": "http://www.adarshhotel.com/",
        "tourism": "guest_house"
      }
    },
    {
      "type": "way",
      "id": 124990238,
      "nodes": [
        1389428536,
        5939601894,
        1389428527,
        1389428519,
        5939601903,
        5939601902,
        1389428507,
        1389428521,
        1389428525,
        1389428532,
        1389428533,
        1389428535,
        1389428537,
        1389428536
      ],
      "tags": {
        "landuse": "commercial",
        "name": "Imperial Grand Palace",
        "tourism": "hotel"
      }
    },
    {
      "type": "way",
      "id": 137835197,
      "nodes": [
        1511530450,
        1511530446,
        1511530448,
        1511530449,
        1511530450
      ],
      "tags": {
        "name": "Hotel Astoria",
        "tourism": "hotel"
      }
    },
    {
      "type": "way",
      "id": 187783782,
      "nodes": [
        1984212484,
        1984212599,
        1984212540,
        1984212557,
        1984212484
      ],
      "tags": {
        "addr:city": "Mumbai",
        "air_conditioning": "yes",
        "building": "yes",
        "email": "guesthouse@tifr.res.in",
        "fax": "+91-22-22804610",
        "guest_house": "guest_house",
        "internet_access": "wlan",
        "internet_access:fee": "customers",
        "name": "Ramanujan",
        "phone": "+91-22-2278 3050",
        "tourism": "guest_house"
      }
    },
    {
      "type": "way",
      "id": 192537217,
      "nodes": [
        2030908452,
        2030908447,
        2030908446,
        2030908451,
        2030908452
      ],
      "tags": {
        "building": "yes",
        "name": "Bawa International",
        "tourism": "hotel"
      }
    },
    {
      "type": "way",
      "id": 192537218,
      "nodes": [
        2030908455,
        2030908450,
        2030908449,
        2030908454,
        2030908455
      ],
      "tags": {
        "brand": "Ibis",
        "brand:wikidata": "Q920166",
        "brand:wikipedia": "en:Ibis (hotel)",
        "building": "yes",
        "name": "Ibis",
        "tourism": "hotel"
      }
    },
    {
      "type": "way",
      "id": 192537219,
      "nodes": [
        2030908472,
        2030908471,
        2030908470,
        2030908465,
        2030908467,
        2030908468,
        2030908473,
        2030908474,
        2030908476,
        2030908472
      ],
      "tags": {
        "addr:street": "Nehru Road Ext",
        "building": "yes",
        "internet_access": "yes",
        "name": "Hotel Transit",
        "tourism": "hotel"
      }
    },
    {
      "type": "way",
      "id": 195072877,
      "nodes": [
        2055700868,
        2055700867,
        2055700860,
        8878074842,
        8878074841,
        2055700869,
        2055700864,
        2055700862,
        2055700878,
        2055700851,
        2055700872,
        2055700870,
        2055700861,
        2055700853,
        2055700868
      ],
      "tags": {
        "alt_name": "CETTM Hostel",
        "building": "yes",
        "name": "CETTM Hostel (MTNL Guesthouse)",
        "tourism": "hostel"
      }
    },
    {
      "type": "way",
      "id": 202527611,
      "nodes": [
        2124941134,
        2124941138,
        2124941130,
        2124941141,
        2124941134
      ],
      "tags": {
        "name": "Guest House",
        "tourism": "guest_house"
      }
    },
    {
      "type": "way",
      "id": 204705451,
      "nodes": [
        2146845334,
        2146845325,
        10941783213,
        2146845296,
        2146845333,
        2146845304,
        2146845321,
        2146845314,
        2146845310,
        2146845294,
        2146845318,
        2146845303,
        2146845331,
        2146845335,
        2146845309,
        2146845329,
        2146845285,
        2146845332,
        2146845307,
        2146845334
      ],
      "tags": {
        "addr:postcode": "400061",
        "addr:street": "Erangal Beach, Madh Island, Marve Road, Malad East,",
        "landuse": "grass",
        "name": "The Retreat",
        "tourism": "hotel"
      }
    },
    {
      "type": "way",
      "id": 206478063,
      "nodes": [
        2164861557,
        2164861592,
        2164861554,
        2164861627,
        2164861565,
        2164861579,
        2164861551,
        2164861621,
        2164861574,
        2164861560,
        2164861616,
        2164861600,
        2164861556,
        2164861570,
        2164861558,
        2164861611,
        2164861594,
        2164861573,
        2164861589,
        2164861613,
        2164861623,
        2164861630,
        2164861586,
        2164861610,
        2164861631,
        2164861555,
        2164861578,
        2164861557
      ],
      "tags": {
        "building": "yes",
        "internet_access": "yes",
        "internet_access:fee": "yes",
        "name": "Renaissance Mumbai Convention Centre Hotel",
        "operator": "Marriott",
        "stars": "5",
        "tourism": "hotel"
      }
    },
    {
      "type": "way",
      "id": 206478064,
      "nodes": [
        2164861571,
        2164861562,
        2164861605,
        2164861588,
        2164861581,
        2164861584,
        2164861563,
        2164861628,
        3641944628,
        3641944629,
        2164861620,
        2164861618,
        2164861607,
        2164861625,
        2164861633,
        2164861608,
        2164861553,
        2164861571
      ],
      "tags": {
        "building": "yes",
        "name": "Renaissance Mumbai Convention Centre Hotel",
        "tourism": "hotel"
      }
    },
    {
      "type": "way",
      "id": 249860342,
      "nodes": [
        2564098951,
        2564098948,
        2564098937,
        2564098938,
        2564098951
      ],
      "tags": {
        "addr:city": "Andheri (W), Mumbai",
        "addr:place": "Oshiwara",
        "addr:postcode": "400053",
        "addr:street": "New Link Road",
        "building": "yes",
        "name": "Maheshwari Bhavan",
        "tourism": "guest_house"
      }
    },
    {
      "type": "way",
      "id": 249860361,
      "nodes": [
        2564097973,
        2564097974,
        2564097958,
        2564097957,
        2564097973
      ],
      "tags": {
        "addr:city": "Andheri (W), Mumbai",
        "addr:place": "Oshiwara",
        "addr:postcode": "400102",
        "addr:street": "New Link Road, Adarsh Nagar",
        "addr:suburb": "Andheri West",
        "building": "yes",
        "name": "Gujarati Samaj Bhavan",
        "tourism": "guest_house"
      }
    },
    {
      "type": "way",
      "id": 250277057,
      "nodes": [
        2567637902,
        2567637905,
        2567637908,
        2567637911,
        2567637902
      ],
      "tags": {
        "addr:city": "Mumbai",
        "addr:housename": "Old Campus, TISS",
        "addr:postcode": "400088",
        "addr:street": "Sion Panvel Highway (Yashwantrao Chavan Marg)",
        "building": "yes",
        "name": "Mphil/Ph.D Ladies Hostel",
        "note": "Thought the name specify M.Phil/Ph.D, even Master level students are allocated rooms. Curruntly the ground floor is allocated to  Boys.",
        "tourism": "hostel"
      }
    },
    {
      "type": "way",
      "id": 250280952,
      "nodes": [
        2567675121,
        2567675122,
        2567675123,
        2567675124,
        2567675125,
        2567675126,
        2567675121
      ],
      "tags": {
        "addr:city": "Mumbai",
        "addr:housename": "MH-3, Old Campus - TISS",
        "addr:postcode": "400088",
        "addr:street": "Deonar Farm Road",
        "building": "yes",
        "name": "Men's Hostel - 3",
        "tourism": "hostel"
      }
    },
    {
      "type": "way",
      "id": 254296962,
      "nodes": [
        2600839276,
        2600839277,
        2600839278,
        2600839279,
        2600839276
      ],
      "tags": {
        "name": "YMCA",
        "tourism": "guest_house"
      }
    },
    {
      "type": "way",
      "id": 257072951,
      "nodes": [
        2626900069,
        2626900072,
        2626900057,
        2626900056,
        2626900069
      ],
      "tags": {
        "building": "yes",
        "name": "Hotel Bawa Continental",
        "tourism": "hotel"
      }
    },
    {
      "type": "way",
      "id": 257073211,
      "nodes": [
        2626900756,
        2626900759,
        2626900747,
        2626900745,
        2626900756
      ],
      "tags": {
        "building": "yes",
        "name": "Hotel Juhu Plaza",
        "name:en": "Hotel Juhu Plaza",
        "name:hi": "हॉटेल जूहू प्लाझा",
        "name:mr": "हॉटेल जूहू प्लाझा",
        "tourism": "hotel"
      }
    },
    {
      "type": "way",
      "id": 257073252,
      "nodes": [
        2626900761,
        2626900766,
        2626900755,
        2626900751,
        2626900743,
        2626900742,
        2626900750,
        2626900749,
        2626900761
      ],
      "tags": {
        "building": "yes",
        "building:levels": "7",
        "internet_access": "wlan",
        "internet_access:fee": "yes",
        "name": "Sun-n-Sand",
        "tourism": "hotel",
        "website": "https://www.sunnsandhotel.com/mumbai.html"
      }
    },
    {
      "type": "way",
      "id": 275865017,
      "nodes": [
        2805282942,
        2805282943,
        2805282944,
        2805282945,
        2805282942
      ],
      "tags": {
        "addr:city": "Mumbai",
        "addr:housenumber": "462",
        "addr:postcode": "400013",
        "addr:street": "Senapati Bapat Marg",
        "building": "yes",
        "name": "The St. Regis Mumbai",
        "operator": "Starwood Hotels & Resorts",
        "tourism": "hotel"
      }
    },
    {
      "type": "way",
      "id": 289511930,
      "nodes": [
        2930714848,
        2930714849,
        2930714850,
        2930714851,
        2930714848
      ],
      "tags": {
        "addr:city": "Mumbai",
        "addr:postcode": "400089",
        "addr:street": "Road No 4",
        "building": "apartments",
        "name": "Amarpali Working Womens Hostel",
        "note": "Building No. 7 As per Mumbai Mahanagar Palika",
        "tourism": "hostel"
      }
    },
    {
      "type": "way",
      "id": 297139849,
      "nodes": [
        3009905397,
        3009905616,
        3009905336,
        3009905552,
        3009905562,
        3009905381,
        3009905398,
        3009905549,
        3009905551,
        3009905374,
        3009905394,
        3009905536,
        3009905397
      ],
      "tags": {
        "check_date": "2024-09-24",
        "name": "SP Jain Hostel",
        "tourism": "hostel"
      }
    },
    {
      "type": "way",
      "id": 307395968,
      "nodes": [
        1495216790,
        3125250280,
        3125250281,
        3125250282,
        1495216790
      ],
      "tags": {
        "addr:city": "Mumbai",
        "addr:housenumber": "F Sector",
        "addr:postcode": "400088",
        "addr:street": "M G Ramchandran Marg",
        "building": "yes",
        "name": "Janata Hotel",
        "tourism": "hotel"
      }
    },
    {
      "type": "way",
      "id": 315277080,
      "nodes": [
        3213862905,
        3213862906,
        3958003900,
        3213862907,
        3213862908,
        3213862905
      ],
      "tags": {
        "building": "yes",
        "name": "al-farook hotel",
        "tourism": "hotel"
      }
    },
    {
      "type": "way",
      "id": 315345642,
      "nodes": [
        3214538867,
        3214538868,
        3214538869,
        3214538870,
        3214538871,
        3214538872,
        3214538873,
        3214538874,
        3214538867
      ],
      "tags": {
        "addr:city": "Mumbai",
        "addr:housenumber": "Plot No 1",
        "addr:postcode": "400071",
        "addr:street": "V N Purav Marg",
        "building": "yes",
        "email": "munish.bahri@gmail.com",
        "name": "Hotel Bahri Residency",
        "operator": "Bahri's",
        "phone": "+91 22 25200013, +91 22 25203782",
        "smoking": "separated",
        "tourism": "hotel",
        "website": "http://www.bahriresidency.com/Default.asp"
      }
    },
    {
      "type": "way",
      "id": 315440399,
      "nodes": [
        3215570204,
        3215570205,
        3215570206,
        3215570207,
        3215570204
      ],
      "tags": {
        "addr:city": "Mumbai",
        "addr:postcode": "400088",
        "building": "yes",
        "name": "dosti hotel",
        "tourism": "hotel"
      }
    },
    {
      "type": "way",
      "id": 331173354,
      "nodes": [
        3382332314,
        3382332315,
        3382332316,
        3382332317,
        3382332318,
        3382332319,
        3382332320,
        3382332314
      ],
      "tags": {
        "building": "yes",
        "name": "H-15 Wing B",
        "smoking": "separated",
        "tourism": "hostel"
      }
    },
    {
      "type": "way",
      "id": 353175693,
      "nodes": [
        3589410645,
        3589410649,
        3589410648,
        3589410644,
        3589410645
      ],
      "tags": {
        "addr:city": "Mumbai",
        "addr:housenumber": "45",
        "addr:postcode": "400099",
        "addr:street": "45, Tarun Bharat Co Op Society",
        "building": "apartments",
        "name": "Hotel Oriental Aster",
        "tourism": "hotel"
      }
    },
    {
      "type": "way",
      "id": 353354130,
      "nodes": [
        3591339602,
        3591339601,
        3591339599,
        3591339600,
        3591339602
      ],
      "tags": {
        "addr:city": "Mumbai",
        "building": "yes",
        "name": "Relax",
        "tourism": "guest_house"
      }
    },
    {
      "type": "way",
      "id": 353364868,
      "nodes": [
        3591476149,
        3591476138,
        3591475992,
        3591476095,
        3591476149
      ],
      "tags": {
        "addr:city": "mumbai",
        "addr:housenumber": "292",
        "addr:street": "Bellasis Road",
        "building": "yes",
        "internet_access": "yes",
        "name": "The Sahil Hotel",
        "stars": "3",
        "tourism": "hotel"
      }
    },
    {
      "type": "way",
      "id": 353393746,
      "nodes": [
        3591758725,
        3591758728,
        3591758742,
        3591758732,
        3591758725
      ],
      "tags": {
        "addr:city": "Mumbai",
        "addr:postcode": "400005",
        "addr:street": "Panday Road",
        "building": "commercial",
        "name": "Hotel Supreme",
        "smoking": "outside",
        "tourism": "hotel"
      }
    },
    {
      "type": "way",
      "id": 353789529,
      "nodes": [
        3595971137,
        3595971149,
        3595971147,
        3595971151,
        3595971152,
        3595971157,
        3595971154,
        3595971145,
        3595971143,
        3595971146,
        3595971142,
        3595971141,
        3595971134,
        3595971115,
        3595971117,
        3595971119,
        3595971120,
        3595971118,
        3595971121,
        3595971124,
        3595971125,
        3595971123,
        3595971131,
        3595971133,
        3595971135,
        3595971132,
        3595971137
      ],
      "tags": {
        "addr:city": "Mumbai",
        "building": "yes",
        "name": "Tata Memorial Hospital Post Graduate's Hostel",
        "tourism": "hostel"
      }
    },
    {
      "type": "way",
      "id": 353815444,
      "nodes": [
        3596176736,
        12395798470,
        3596176734,
        3596176721,
        3596176726,
        3596176736
      ],
      "tags": {
        "addr:city": "Mumbai",
        "addr:district": "Mumbai",
        "addr:housenumber": "73/A",
        "addr:postcode": "400097",
        "addr:street": "Manchubhai Road, Malad (East),",
        "brand": "Hotel Shalimar",
        "building": "yes",
        "email": "hotelshalimarmalad@gmail.com",
        "internet_access": "yes",
        "internet_access:fee": "no",
        "name": "Hotel Shalimar",
        "phone": "+919320304093",
        "rooms": "21",
        "tourism": "hotel",
        "website": "hotelshalimar.net"
      }
    },
    {
      "type": "way",
      "id": 354029367,
      "nodes": [
        3598235909,
        3598235906,
        3598235918,
        3598235917,
        3598235907,
        3598235905,
        3598235893,
        3598235894,
        3598233989,
        3598233992,
        3598235895,
        3598235896,
        3598233990,
        3598233991,
        3598235909
      ],
      "tags": {
        "addr:city": "Mumbai",
        "building": "yes",
        "name": "New Zealand Hostel",
        "phone": "+91 22 29272757",
        "tourism": "hostel"
      }
    },
    {
      "type": "way",
      "id": 354228648,
      "nodes": [
        3599892282,
        3599892283,
        3599892284,
        3599892287,
        3599892286,
        3599892292,
        3599893894,
        3599893897,
        3599893893,
        9036896646,
        3599892291,
        9036896647,
        3599892288,
        3599892280,
        3599892282
      ],
      "tags": {
        "building": "yes",
        "name": "Kohinoor Building",
        "tourism": "hotel",
        "website": "https://www.kohinoorhotels.com/kohinoor_prabhadevi"
      }
    },
    {
      "type": "way",
      "id": 356531671,
      "nodes": [
        3619453670,
        3619453653,
        3619453616,
        3619453644,
        3619453670
      ],
      "tags": {
        "building": "hotel",
        "name": "Kohinoor Continental",
        "tourism": "hotel"
      }
    },
    {
      "type": "way",
      "id": 357042474,
      "nodes": [
        3624332893,
        3624332890,
        3624332878,
        3624332883,
        3624332893
      ],
      "tags": {
        "building": "hotel",
        "name": "Hotel Bawa Suites",
        "name:en": "Hotel Bawa Suites",
        "tourism": "hotel"
      }
    },
    {
      "type": "way",
      "id": 357186658,
      "nodes": [
        3625172912,
        3625172915,
        3625172913,
        3625172909,
        3625172912
      ],
      "tags": {
        "building": "yes",
        "name": "Bloom Boutique",
        "name:en": "Bloom Boutique",
        "tourism": "hotel"
      }
    },
    {
      "type": "way",
      "id": 357472411,
      "nodes": [
        3627071158,
        3627071181,
        3627071179,
        3627071155,
        3627071158
      ],
      "tags": {
        "building": "yes",
        "name": "Royal Inn",
        "name:en": "Royal Inn",
        "stars": "3",
        "tourism": "hotel"
      }
    },
    {
      "type": "way",
      "id": 358489280,
      "nodes": [
        3634025013,
        3634025007,
        3634024998,
        3634025004,
        3634025013
      ],
      "tags": {
        "building": "yes",
        "name": "Hotel Volga",
        "tourism": "hotel"
      }
    },
    {
      "type": "way",
      "id": 358888240,
      "nodes": [
        3637088864,
        3637088877,
        3637088875,
        3637088876,
        3637088887,
        3637093793,
        3637088890,
        3637093797,
        3637093806,
        3637093799,
        3637093811,
        3637093824,
        3637093820,
        3637093821,
        3637093817,
        3637093832,
        3637093828,
        3637093807,
        3637088888,
        3637088878,
        3637088864
      ],
      "tags": {
        "brand": "Hyatt Regency",
        "brand:wikidata": "Q1425063",
        "brand:wikipedia": "en:Hyatt",
        "building": "hotel",
        "name": "Hyatt Regency",
        "tourism": "hotel"
      }
    },
    {
      "type": "way",
      "id": 359983627,
      "nodes": [
        3645873910,
        3645873911,
        3645873909,
        3645873908,
        3645873910
      ],
      "tags": {
        "building": "yes",
        "name": "Juhu Residency Boutique Hotel",
        "tourism": "hotel"
      }
    },